"name","address","lat","lng"
"ドトールコーヒーショップ 伊達店","北海道伊達市梅本町３９‐３０","42.4722953","140.8711921"
"ドトールコーヒーショップ 札幌大通西３丁目店","北海道札幌市中央区大通西３丁目１１ せんばビル","43.0600917","141.3532043"
"ドトールコーヒーショップ ＪＲ札幌北口店","北海道札幌市北区北六条西３‐２‐１","43.092989","141.3445614"
"ドトールコーヒーショップ 札幌エスタ地下店","北海道札幌市中央区北五条西２丁目１","43.0676618","141.3523873"
"ドトールコーヒーショップ 旭川買物公園通り店","北海道旭川市２条通７丁目左１０号","43.7669274","142.3596642"
"ドトールコーヒーショップ 札幌福住店","北海道札幌市豊平区福住二条１‐２‐５","43.02015129999999","141.403891"
"ドトールコーヒーショップ 北海道庁店","北海道札幌市中央区北三条西６丁目","43.0643592","141.347449"
"ドトールコーヒーショップ 札幌南一条通り店","北海道札幌市中央区南一条西５丁目７ 敷島南１条ビル１Ｆ","43.058335","141.3498797"
"ドトールコーヒーショップ 中標津店","北海道標津郡中標津町南町３‐１０","43.5356643","144.9778254"
"ドトールコーヒーショップ 札幌元町店","北海道札幌市東区北三十一条東１５-１-１","43.1018276","141.3679894"
"ドトールコーヒーショップ 函館中央病院店","北海道函館市本町３３‐２","41.7867868","140.7517385"
"ドトールコーヒーショップ 釧路労災病院店","北海道釧路市中園町１３‐２３","43.0060991","144.385274"
"ドトールコーヒーショップ コーチャンフォー旭川店","北海道旭川市宮前１条２-４-１","43.7587758","142.3678997"
"ドトールコーヒーショップ 帯広厚生病院店","北海道帯広市西六条南８丁目１","42.9227295","143.1945505"
"ドトールコーヒーショップ 旭川厚生病院店","北海道旭川市１条通２４-１１１","43.7588319","142.3849006"
"ドトールコーヒーショップ コーチャンフォー北見店","北海道北見市並木町５２１-４","43.82664390000001","143.9157589"
"ドトールコーヒーショップ 札幌狸小路店","北海道札幌市中央区南三条西３-１７-９","43.0572047","141.3532323"
"ドトールコーヒーショップ 市立函館病院店","北海道函館市港町１-１０-１ 市立函館病院内","41.805565","140.73022"
"ドトールコーヒーショップ 札幌大通駅店","北海道札幌市中央区大通西３-４","43.0600071","141.3527377"
"ドトールコーヒーショップ 札幌苗穂店","北海道札幌市東区東苗穂二条３丁目","43.0828948","141.4050736"
"ドトールコーヒーショップ 伊達店","北海道伊達市梅本町３９‐３０","42.4722953","140.8711921"
"ドトールコーヒーショップ 札幌大通西３丁目店","北海道札幌市中央区大通西３丁目１１ せんばビル","43.0600917","141.3532043"
"ドトールコーヒーショップ ＪＲ札幌北口店","北海道札幌市北区北六条西３‐２‐１","43.092989","141.3445614"
"ドトールコーヒーショップ 札幌エスタ地下店","北海道札幌市中央区北五条西２丁目１","43.0676618","141.3523873"
"ドトールコーヒーショップ 旭川買物公園通り店","北海道旭川市２条通７丁目左１０号","43.7669274","142.3596642"
"ドトールコーヒーショップ 札幌福住店","北海道札幌市豊平区福住二条１‐２‐５","43.02015129999999","141.403891"
"ドトールコーヒーショップ 北海道庁店","北海道札幌市中央区北三条西６丁目","43.0643592","141.347449"
"ドトールコーヒーショップ 札幌南一条通り店","北海道札幌市中央区南一条西５丁目７ 敷島南１条ビル１Ｆ","43.058335","141.3498797"
"ドトールコーヒーショップ 中標津店","北海道標津郡中標津町南町３‐１０","43.5356643","144.9778254"
"ドトールコーヒーショップ 札幌元町店","北海道札幌市東区北三十一条東１５-１-１","43.1018276","141.3679894"
"ドトールコーヒーショップ 函館中央病院店","北海道函館市本町３３‐２","41.7867868","140.7517385"
"ドトールコーヒーショップ 釧路労災病院店","北海道釧路市中園町１３‐２３","43.0060991","144.385274"
"ドトールコーヒーショップ コーチャンフォー旭川店","北海道旭川市宮前１条２-４-１","43.7587758","142.3678997"
"ドトールコーヒーショップ 帯広厚生病院店","北海道帯広市西六条南８丁目１","42.9227295","143.1945505"
"ドトールコーヒーショップ 旭川厚生病院店","北海道旭川市１条通２４-１１１","43.7588319","142.3849006"
"ドトールコーヒーショップ コーチャンフォー北見店","北海道北見市並木町５２１-４","43.82664390000001","143.9157589"
"ドトールコーヒーショップ 札幌狸小路店","北海道札幌市中央区南三条西３-１７-９","43.0572047","141.3532323"
"ドトールコーヒーショップ 市立函館病院店","北海道函館市港町１-１０-１ 市立函館病院内","41.805565","140.73022"
"ドトールコーヒーショップ 札幌大通駅店","北海道札幌市中央区大通西３-４","43.0600071","141.3527377"
"ドトールコーヒーショップ 札幌苗穂店","北海道札幌市東区東苗穂二条３丁目","43.0828948","141.4050736"
"ドトールコーヒーショップ 帯広イーストモール店","北海道帯広市東四条南１６-６","42.9140734","143.2148071"
"ドトールコーヒーショップ ジョイフルエーケー大麻店","北海道江別市大麻１９８-３","43.0895863","141.4973681"
"ドトールコーヒーショップ 青森下田店","青森県上北郡おいらせ町中野平４０-１ イオンモール下田２Ｆ","40.6022489","141.4180182"
"ドトールコーヒーショップ 五所川原エルム店","青森県五所川原市大字唐笠柳字藤巻５１７-１ エルムの街ショッピングセンター１Ｆ","40.7987369","140.4538322"
"ドトールコーヒーショップ 八戸ピアドゥ店","青森県八戸市沼館４‐７‐１１２","40.52869279999999","141.500905"
"ドトールコーヒーショップ 青森駅店","青森県青森市柳川１‐１‐１","40.8290043","140.7343931"
"ドトールコーヒーショップ 八戸新井田店","青森県八戸市新井田字法光野２３‐２","40.4985526","141.5206481"
"ドトールコーヒーショップ 東青森店","青森県青森市田屋敷字増田１６‐２","40.8120793","140.7841814"
"ドトールコーヒーショップ 弘前さくら野店","青森県弘前市高崎２‐１５‐１ さくら野弘前ラフォルテ１Ｆ","40.608168","140.495269"
"ドトールコーヒーショップ 八戸駅店","青森県八戸市尻内町字舘田１‐１","40.5096273","141.4325236"
"ドトールコーヒーショップ 弘前イトーヨーカドー店","青森県弘前市駅前３‐２‐１","40.5993585","140.4810521"
"ドトールコーヒーショップ 弘前駅ビル店","青森県弘前市表町２‐１１ 弘前駅ビル２Ｆ","40.5991728","140.4848821"
"ドトールコーヒーショップ 五所川原金木店","青森県五所川原市金木町沢部４６０ スーパーストア金木タウンセンター店","40.9046332","140.4458378"
"ドトールコーヒーショップ エッソ問屋町店","青森県青森市第二問屋町４‐１０‐２６","40.7883752","140.7506045"
"ドトールコーヒーショップ 弘前大学医学部附属病院店","青森県弘前市本町５３ 弘前大学医学部附属病院内","40.599447","140.465742"
"ドトールコーヒーショップ 八戸十三日町店","青森県八戸市十三日町１５","40.5092816","141.4895486"
"ドトールコーヒーショップ 青森新町通り店","青森県青森市新町１-８-６","40.8269935","140.737468"
"ドトールコーヒーショップ 盛岡大通り２丁目店","岩手県盛岡市大通２‐６‐１２","39.7035358","141.1449652"
"ドトールコーヒーショップ 盛岡肴町店","岩手県盛岡市中ノ橋通１‐５‐２２","39.6996922","141.155481"
"ドトールコーヒーショップ 北上さくら野店","岩手県北上市本通り２‐２‐１","39.28854219999999","141.1159322"
"ドトールコーヒーショップ 盛岡駅店","岩手県盛岡市盛岡駅前通１‐４８","39.7008054","141.1373521"
"ドトールコーヒーショップ イオンモール盛岡店","岩手県盛岡市前潟４‐７‐１ イオンモール盛岡２F","39.7118549","141.0988763"
"ドトールコーヒーショップ 盛岡駅南口店","岩手県盛岡市盛岡駅前通１‐４８ 盛岡駅２Ｆ　待合室内","39.7008054","141.1373521"
"ドトールコーヒーショップ エムズエクスポ盛岡店","岩手県盛岡市みたけ３-３６-１","39.74058429999999","141.1177554"
"ドトールコーヒーショップ 盛岡中央店","岩手県盛岡市大通１-６-１７","39.7024444","141.1489121"
"ドトールコーヒーショップ 仙台泉中央店","宮城県仙台市泉区泉中央１‐５‐１ アリオ仙台泉店内","38.324585","140.882188"
"ドトールコーヒーショップ 仙台一番町３丁目店","宮城県仙台市青葉区一番町３‐１０‐２５ 一番街ビル","38.2615601","140.8714397"
"ドトールコーヒーショップ 仙台北口店","宮城県仙台市青葉区中央１‐８‐４０ 仙台パルビル３Ｆ・４Ｆ","38.2618124","140.8805931"
"ドトールコーヒーショップ 仙台中央通り大町店","宮城県仙台市青葉区一番町３‐６‐８","38.26100479999999","140.8734585"
"ドトールコーヒーショップ 仙台駅店","宮城県仙台市青葉区中央１‐１‐１ 仙台駅２Ｆ","38.2602856","140.8822438"
"ドトールコーヒーショップ 仙台長町たいはっくる店","宮城県仙台市太白区長町５‐３‐１","38.2283388","140.8844251"
"ドトールコーヒーショップ 仙台定禅寺通り店","宮城県仙台市青葉区国分町３‐１‐１１","38.2662902","140.869517"
"ドトールコーヒーショップ 仙台クリスロード店","宮城県仙台市青葉区中央２‐５‐６","38.2615326","140.8765804"
"ドトールコーヒーショップ 仙台一番町４丁目店","宮城県仙台市青葉区一番町４‐５‐２１","38.264471","140.8709308"
"ドトールコーヒーショップ 名取田高店","宮城県名取市田高字原５０９","38.1782743","140.8777224"
"ドトールコーヒーショップ 石巻中里店","宮城県石巻市南中里２‐９‐３６","38.44060169999999","141.3004363"
"ドトールコーヒーショップ エッソ国見ヶ丘店","宮城県仙台市青葉区吉成台１‐１‐８","38.2929246","140.8227919"
"ドトールコーヒーショップ 仙台ザ・モール長町店","宮城県仙台市太白区長町７‐２０‐１５","38.1886321","140.8879125"
"ドトールコーヒーショップ 仙台八幡店","宮城県仙台市青葉区八幡３‐１‐５０","38.2692782","140.8493382"
"ドトールコーヒーショップ イオンモール名取店","宮城県名取市杜せきのした５ー３-１ ２Fフードコート","38.1636158","140.895773"
"ドトールコーヒーショップ 仙台南町通り店","宮城県仙台市青葉区中央３‐４‐３","38.2584745","140.8770499"
"ドトールコーヒーショップ 仙台医療センター店","宮城県仙台市宮城野区宮城野２‐８‐８","38.2609864","140.9077772"
"ドトールコーヒーショップ 宮城県庁店","宮城県仙台市青葉区本町３‐８‐１ 宮城県庁１Ｆ","38.2689415","140.8722724"
"ドトールコーヒーショップ 仙台泉八文字屋店","宮城県仙台市泉区高玉町４‐１","38.3181738","140.8943694"
"ドトールコーヒーショップ 大崎市民病院店","宮城県大崎市古川穂波３-８-１ 大崎市民病院内","38.56595739999999","140.9440167"
"ドトールコーヒーショップ 仙台泉中央店","宮城県仙台市泉区泉中央１‐５‐１ アリオ仙台泉店内","38.324585","140.882188"
"ドトールコーヒーショップ 仙台一番町３丁目店","宮城県仙台市青葉区一番町３‐１０‐２５ 一番街ビル","38.2615601","140.8714397"
"ドトールコーヒーショップ 仙台北口店","宮城県仙台市青葉区中央１‐８‐４０ 仙台パルビル３Ｆ・４Ｆ","38.2618124","140.8805931"
"ドトールコーヒーショップ 仙台中央通り大町店","宮城県仙台市青葉区一番町３‐６‐８","38.26100479999999","140.8734585"
"ドトールコーヒーショップ 仙台駅店","宮城県仙台市青葉区中央１‐１‐１ 仙台駅２Ｆ","38.2602856","140.8822438"
"ドトールコーヒーショップ 仙台長町たいはっくる店","宮城県仙台市太白区長町５‐３‐１","38.2283388","140.8844251"
"ドトールコーヒーショップ 仙台定禅寺通り店","宮城県仙台市青葉区国分町３‐１‐１１","38.2662902","140.869517"
"ドトールコーヒーショップ 仙台クリスロード店","宮城県仙台市青葉区中央２‐５‐６","38.2615326","140.8765804"
"ドトールコーヒーショップ 仙台一番町４丁目店","宮城県仙台市青葉区一番町４‐５‐２１","38.264471","140.8709308"
"ドトールコーヒーショップ 名取田高店","宮城県名取市田高字原５０９","38.1782743","140.8777224"
"ドトールコーヒーショップ 石巻中里店","宮城県石巻市南中里２‐９‐３６","38.44060169999999","141.3004363"
"ドトールコーヒーショップ エッソ国見ヶ丘店","宮城県仙台市青葉区吉成台１‐１‐８","38.2929246","140.8227919"
"ドトールコーヒーショップ 仙台ザ・モール長町店","宮城県仙台市太白区長町７‐２０‐１５","38.1886321","140.8879125"
"ドトールコーヒーショップ 仙台八幡店","宮城県仙台市青葉区八幡３‐１‐５０","38.2692782","140.8493382"
"ドトールコーヒーショップ イオンモール名取店","宮城県名取市杜せきのした５ー３-１ ２Fフードコート","38.1636158","140.895773"
"ドトールコーヒーショップ 仙台南町通り店","宮城県仙台市青葉区中央３‐４‐３","38.2584745","140.8770499"
"ドトールコーヒーショップ 仙台医療センター店","宮城県仙台市宮城野区宮城野２‐８‐８","38.2609864","140.9077772"
"ドトールコーヒーショップ 宮城県庁店","宮城県仙台市青葉区本町３‐８‐１ 宮城県庁１Ｆ","38.2689415","140.8722724"
"ドトールコーヒーショップ 仙台泉八文字屋店","宮城県仙台市泉区高玉町４‐１","38.3181738","140.8943694"
"ドトールコーヒーショップ 大崎市民病院店","宮城県大崎市古川穂波３-８-１ 大崎市民病院内","38.56595739999999","140.9440167"
"ドトールコーヒーショップ 仙台サンモール店","宮城県仙台市青葉区一番町２-４-１８","38.2592216","140.8728197"
"ドトールコーヒーショップ 仙台あおば通店","宮城県仙台市青葉区中央２-２-５","38.2608826","140.8771859"
"ドトールコーヒーショップ 仙台イービーンズ店","宮城県仙台市青葉区中央４-１-１ ２Ｆ","38.2584745","140.8770499"
"ドトールコーヒーショップ 北仙台駅前店","宮城県仙台市青葉区昭和町５-４１","38.2813273","140.868905"
"ドトールコーヒーショップ イオンモール石巻店","宮城県石巻市茜平４-１０４ ２Ｆフードコート内","38.4477185","141.2660009"
"エクセルシオール カフェ 仙台中央通り店","宮城県仙台市青葉区中央２‐１‐２３ 松澤ビル１Ｆ","38.261524","140.878122"
"カフェ コロラド 塩釜店","宮城県塩竈市尾島町２‐１ 稲荷ビル","38.3168628","141.0221873"
"ドトールコーヒーショップ 秋田トピコ店","秋田県秋田市中通７‐１‐２","39.71691209999999","140.1297397"
"ドトールコーヒーショップ 能代厚生医療センター店","秋田県能代市落合字上前田地内","40.22669339999999","140.0230424"
"ドトールコーヒーショップ 鶴岡Ｓ-ＭＡＬＬ店","山形県鶴岡市錦町２‐２１","38.7390015","139.8320187"
"ドトールコーヒーショップ エッソ東青田店","山形県山形市東青田１‐１‐３０","38.2268333","140.3374112"
"ドトールコーヒーショップ 天童八文字屋店","山形県天童市鍬ノ町２-３-４３","38.3538019","140.3863104"
"ドトールコーヒーショップ 山形大学病院店","山形県山形市飯田西２‐２‐２","38.2158643","140.3174494"
"ドトールコーヒーショップ エッソ嶋店","山形県山形市嶋北４‐５‐３０","38.2898043","140.3185754"
"ドトールコーヒーショップ エッソ酒田店","山形県酒田市大町６‐１９","38.90498729999999","139.8561588"
"ドトールコーヒーショップ 山形市立病院済生館店","山形県山形市七日町１‐３‐２６","38.252628","140.3373908"
"ドトールコーヒーショップ エッソ米沢店","山形県米沢市中田町９２１","37.9400214","140.1190988"
"ドトールコーヒーショップ 置賜総合病院店","山形県東置賜郡川西町大字西大塚２０００","38.0498781","140.0564974"
"ドトールコーヒーショップ 鶴岡バスターミナル店","山形県鶴岡市錦町２-２１ エスモールバスターミナル内","38.7394195","139.8323891"
"ドトールコーヒーショップ 郡山中央通り店","福島県郡山市中町１１‐１ 関川本店中町ビル","37.3973827","140.3844511"
"ドトールコーヒーショップ 郡山富久山店","福島県郡山市富久山町八山田字大森新田３６‐１","37.4321566","140.3824807"
"ドトールコーヒーショップ 郡山フェスタ店","福島県郡山市日和田町字小原１","37.4446275","140.3763198"
"ドトールコーヒーショップ 郡山駅店","福島県郡山市燧田１９５","37.3967829","140.3880841"
"ドトールコーヒーショップ 福島東口店","福島県福島市栄町７‐３２","37.7540731","140.4621906"
"ドトールコーヒーショップ エスパル福島店","福島県福島市栄町１‐１ エスパル福島１Ｆ","37.7547658","140.4603155"
"ドトールコーヒーショップ 白河店","福島県白河市北中川原１６１-１","37.12194909999999","140.2270887"
"ドトールコーヒーショップ 会津若松神明通り店","福島県会津若松市栄町２‐１４","37.4961721","139.9284096"
"ドトールコーヒーショップ エッソいわき中央インターチェンジ店","福島県いわき市内郷御台境町鬼越１５９‐１","37.053929","140.8633144"
"ドトールコーヒーショップ 会津若松滝沢店","福島県会津若松市一箕町八幡字牛ヶ墓７‐１","37.5046046","139.9496019"
"ドトールコーヒーショップ 須賀川東店","福島県須賀川市仲の町４０‐１","37.2975874","140.381087"
"ドトールコーヒーショップ エッソＲ６神谷店","福島県いわき市平下神谷石渕５０‐１","37.0673861","140.9452434"
"ドトールコーヒーショップ 会津若松アピオ店","福島県会津若松市インター西１１８","37.5206942","139.9175738"
"ドトールコーヒーショップ 福島野田店","福島県福島市野田町４‐１‐３","37.7606638","140.4539688"
"ドトールコーヒーショップ イオンタウン郡山店","福島県郡山市松木町２‐８８","37.3909751","140.3893342"
"ドトールコーヒーショップ 二本松店","福島県二本松市油井字福岡１３３‐１","37.6142968","140.4621444"
"ドトールコーヒーショップ 田村船引店","福島県田村市船引町船引字川代５８","37.43391980000001","140.5916407"
"ドトールコーヒーショップ エッソ郡山美術館通り店","福島県郡山市向河原町４‐６５","37.4009522","140.3956194"
"ドトールコーヒーショップ いわき駅ビル店","福島県いわき市平字田町１","37.0579185","140.8919672"
"ドトールコーヒーショップ 竹田綜合病院店","福島県会津若松市山鹿町３-２７","37.4900115","139.9219937"
"ドトールコーヒーショップ 郡山中央通り店","福島県郡山市中町１１‐１ 関川本店中町ビル","37.3973827","140.3844511"
"ドトールコーヒーショップ 郡山富久山店","福島県郡山市富久山町八山田字大森新田３６‐１","37.4321566","140.3824807"
"ドトールコーヒーショップ 郡山フェスタ店","福島県郡山市日和田町字小原１","37.4446275","140.3763198"
"ドトールコーヒーショップ 郡山駅店","福島県郡山市燧田１９５","37.3967829","140.3880841"
"ドトールコーヒーショップ 福島東口店","福島県福島市栄町７‐３２","37.7540731","140.4621906"
"ドトールコーヒーショップ エスパル福島店","福島県福島市栄町１‐１ エスパル福島１Ｆ","37.7547658","140.4603155"
"ドトールコーヒーショップ 白河店","福島県白河市北中川原１６１-１","37.12194909999999","140.2270887"
"ドトールコーヒーショップ 会津若松神明通り店","福島県会津若松市栄町２‐１４","37.4961721","139.9284096"
"ドトールコーヒーショップ エッソいわき中央インターチェンジ店","福島県いわき市内郷御台境町鬼越１５９‐１","37.053929","140.8633144"
"ドトールコーヒーショップ 会津若松滝沢店","福島県会津若松市一箕町八幡字牛ヶ墓７‐１","37.5046046","139.9496019"
"ドトールコーヒーショップ 須賀川東店","福島県須賀川市仲の町４０‐１","37.2975874","140.381087"
"ドトールコーヒーショップ エッソＲ６神谷店","福島県いわき市平下神谷石渕５０‐１","37.0673861","140.9452434"
"ドトールコーヒーショップ 会津若松アピオ店","福島県会津若松市インター西１１８","37.5206942","139.9175738"
"ドトールコーヒーショップ 福島野田店","福島県福島市野田町４‐１‐３","37.7606638","140.4539688"
"ドトールコーヒーショップ イオンタウン郡山店","福島県郡山市松木町２‐８８","37.3909751","140.3893342"
"ドトールコーヒーショップ 二本松店","福島県二本松市油井字福岡１３３‐１","37.6142968","140.4621444"
"ドトールコーヒーショップ 田村船引店","福島県田村市船引町船引字川代５８","37.43391980000001","140.5916407"
"ドトールコーヒーショップ エッソ郡山美術館通り店","福島県郡山市向河原町４‐６５","37.4009522","140.3956194"
"ドトールコーヒーショップ いわき駅ビル店","福島県いわき市平字田町１","37.0579185","140.8919672"
"ドトールコーヒーショップ 竹田綜合病院店","福島県会津若松市山鹿町３-２７","37.4900115","139.9219937"
"ドトールコーヒーショップ 郡山駅西口店","福島県郡山市駅前１-６-１０ ダイワロイネットホテル１Ｆ","37.3975448","140.3869413"
"エクセルシオール カフェ 郡山桑野店","福島県郡山市下亀田１６‐１６","37.4076946","140.3488817"
"エクセルシオール カフェ 会津中央病院店","福島県会津若松市鶴賀町１‐１ 会津中央病院　Ｗ２棟Ｂ１Ｆ","37.5219226","139.9449998"
"エクセルシオール カフェ 福島南店","福島県福島市黒岩字浜井場２４‐１","37.7278317","140.4688884"
"ドトールコーヒーショップ 日立店","茨城県日立市幸町１‐１５‐４","36.5914966","140.6582663"
"ドトールコーヒーショップ エッソＲ６取手店","茨城県取手市井野台３‐６‐２５","35.9059873","140.0674645"
"ドトールコーヒーショップ エッソ牛久店","茨城県牛久市栄町４-５４","35.9861936","140.1546228"
"ドトールコーヒーショップ 江戸崎パンプ店","茨城県稲敷市江戸崎甲４８３６","35.9591919","140.3156506"
"ドトールコーヒーショップ イオンタウン水戸南店","茨城県東茨城郡茨城町長岡３４８０‐１０１","36.3107789","140.4412148"
"ドトールコーヒーショップ 東京医科大学茨城医療センター店","茨城県稲敷郡阿見町中央３‐２０‐１ 東京医科大学茨城医療センター内","36.0361385","140.2166605"
"ドトールコーヒーショップ ペルチ土浦店","茨城県土浦市有明町１‐３０ ペルチ土浦３Ｆ","36.0779331","140.2056365"
"ドトールコーヒーショップ 水戸済生会総合病院店","茨城県水戸市双葉台３-３-１０ 水戸済生会総合病院構内","36.3987248","140.394752"
"ドトールコーヒーショップ ひたちなかファッションクルーズ店","茨城県ひたちなか市新光町３５","36.4055177","140.5859818"
"エクセルシオール カフェ 水戸エクセル店","茨城県水戸市宮町１‐１‐１ 水戸エクセルビル２Ｆ","36.3711017","140.475847"
"カフェ コロラド 古河駅前店","茨城県古河市本町１‐２‐１ コモディイイダ古河駅前店１Ｆ","36.1949075","139.7087223"
"ドトールコーヒーショップ 宇都宮オリオン通り店","栃木県宇都宮市江野町２‐１３","36.56042559999999","139.8821598"
"ドトールコーヒーショップ 大谷パーキングエリア下り店","栃木県宇都宮市駒生町字久保田３０２１‐５","36.5996473","139.8422719"
"ドトールコーヒーショップ エッソ柳田店","栃木県宇都宮市柳田町５９２‐１","36.5687946","139.9608185"
"ドトールコーヒーショップ 大田原若草店","栃木県大田原市若草１‐７２１‐１","36.8578887","140.0309684"
"ドトールコーヒーショップ 足利赤十字病院店","栃木県足利市五十部町２８４-１","36.3402421","139.4205186"
"ドトールコーヒーショップ さくら店","栃木県さくら市櫻野５０５","36.6819075","139.9753546"
"ドトールコーヒーショップ ビッグワン鹿沼店","栃木県鹿沼市晃望台２２-１","36.5603482","139.7671415"
"ドトールコーヒーショップ ビッグワンＴＳＵＴＡＹＡ宇都宮南店","栃木県宇都宮市針ヶ谷町４７２-７","36.4921385","139.857892"
"ドトールコーヒーショップ 本田技術研究所四輪Ｒ＆Ｄセンター店","栃木県芳賀郡芳賀町下高根沢４６３０","36.5750169","140.0160688"
"エクセルシオール カフェ 西那須野店","栃木県那須塩原市太夫塚６‐２３２‐８","36.8847339","139.9735814"
"カフェ コロラド 小山駅前店","栃木県小山市中央町３‐６‐１７","36.3131525","139.8051055"
"ドトールコーヒーショップ エッソ刀水橋店","群馬県太田市古戸町２３１‐２","36.2453377","139.380895"
"ドトールコーヒーショップ イオンモール太田店","群馬県太田市石原町８１ イオンモール太田２Ｆ","36.2946433","139.4006426"
"ドトールコーヒーショップ エッソ館林店","群馬県館林市足次町１１９８‐１","36.2600295","139.5425426"
"ドトールコーヒーショップ ニコモール新田店","群馬県太田市新田市野井町５９２‐１３","36.3039725","139.3016548"
"ドトールコーヒーショップ 太田記念病院店","群馬県太田市大島町４５５-１","36.2993738","139.3604187"
"カフェ コロラド 高崎大沢町店","群馬県高崎市大沢町上萩原１９６‐１","36.3555719","139.0625209"
"ドトールコーヒーショップ 北浦和東口店","埼玉県さいたま市浦和区北浦和３‐８‐１５","35.87270850000001","139.6457902"
"ドトールコーヒーショップ 北浦和西口店","埼玉県さいたま市浦和区北浦和４‐１‐１４ 群青ビル１Ｆ","35.8714084","139.6457472"
"ドトールコーヒーショップ 本川越ペペ店","埼玉県川越市新富町１‐２２","35.9146021","139.4818717"
"ドトールコーヒーショップ ファイン越谷店","埼玉県越谷市弥生町４‐１１ ファイン越谷","35.8887819","139.7856053"
"ドトールコーヒーショップ 和光市駅前店","埼玉県和光市丸山台１‐１０‐４","35.7874655","139.6123232"
"ドトールコーヒーショップ 川口東口店","埼玉県川口市栄町３‐５‐１","35.8030608","139.7185691"
"ドトールコーヒーショップ エッソ川越南店","埼玉県川越市熊野町１６‐１","35.8754772","139.5019075"
"ドトールコーヒーショップ エッソ入間ニュータウン店","埼玉県入間市扇町屋１‐８‐１","35.8313439","139.3875914"
"ドトールコーヒーショップ 上尾ショッピングアベニュー店","埼玉県上尾市緑丘３‐３‐１１‐２ Ｐ・Ａ・Ｐ・Ａ　ＰＲＩＮＣＥＳＳ内","35.9874456","139.5804868"
"ドトールコーヒーショップ パルテきたこし店","埼玉県越谷市大沢３‐６‐１ パルテきたこし１Ｆ","35.901974","139.7806244"
"ドトールコーヒーショップ 西武入間ペペ店","埼玉県入間市河原町２‐１","35.8418038","139.3895992"
"ドトールコーヒーショップ エッソプリムローズ朝霞店","埼玉県朝霞市栄町４‐３‐７","35.7868429","139.5975081"
"ドトールコーヒーショップ エッソせんげん台店","埼玉県越谷市千間台東３‐６‐１","35.9329189","139.7787169"
"ドトールコーヒーショップ 大宮ソニックシティ前店","埼玉県さいたま市大宮区桜木町２‐１９４","35.9061398","139.6202045"
"ドトールコーヒーショップ 蕨西口店","埼玉県蕨市中央１‐２３","35.8284061","139.6899736"
"ドトールコーヒーショップ エッソ入間店","埼玉県入間市宮寺２７０７‐２","35.8029053","139.3759013"
"ドトールコーヒーショップ エッソ狭山ヶ丘２１店","埼玉県所沢市林３‐５５６‐１","35.8093776","139.4023962"
"ドトールコーヒーショップ エッソ嵐山店","埼玉県東松山市上唐子１５０２‐１４","36.0384512","139.3347923"
"ドトールコーヒーショップ 北浦和東口店","埼玉県さいたま市浦和区北浦和３‐８‐１５","35.87270850000001","139.6457902"
"ドトールコーヒーショップ 北浦和西口店","埼玉県さいたま市浦和区北浦和４‐１‐１４ 群青ビル１Ｆ","35.8714084","139.6457472"
"ドトールコーヒーショップ 本川越ペペ店","埼玉県川越市新富町１‐２２","35.9146021","139.4818717"
"ドトールコーヒーショップ ファイン越谷店","埼玉県越谷市弥生町４‐１１ ファイン越谷","35.8887819","139.7856053"
"ドトールコーヒーショップ 和光市駅前店","埼玉県和光市丸山台１‐１０‐４","35.7874655","139.6123232"
"ドトールコーヒーショップ 川口東口店","埼玉県川口市栄町３‐５‐１","35.8030608","139.7185691"
"ドトールコーヒーショップ エッソ川越南店","埼玉県川越市熊野町１６‐１","35.8754772","139.5019075"
"ドトールコーヒーショップ エッソ入間ニュータウン店","埼玉県入間市扇町屋１‐８‐１","35.8313439","139.3875914"
"ドトールコーヒーショップ 上尾ショッピングアベニュー店","埼玉県上尾市緑丘３‐３‐１１‐２ Ｐ・Ａ・Ｐ・Ａ　ＰＲＩＮＣＥＳＳ内","35.9874456","139.5804868"
"ドトールコーヒーショップ パルテきたこし店","埼玉県越谷市大沢３‐６‐１ パルテきたこし１Ｆ","35.901974","139.7806244"
"ドトールコーヒーショップ 西武入間ペペ店","埼玉県入間市河原町２‐１","35.8418038","139.3895992"
"ドトールコーヒーショップ エッソプリムローズ朝霞店","埼玉県朝霞市栄町４‐３‐７","35.7868429","139.5975081"
"ドトールコーヒーショップ エッソせんげん台店","埼玉県越谷市千間台東３‐６‐１","35.9329189","139.7787169"
"ドトールコーヒーショップ 大宮ソニックシティ前店","埼玉県さいたま市大宮区桜木町２‐１９４","35.9061398","139.6202045"
"ドトールコーヒーショップ 蕨西口店","埼玉県蕨市中央１‐２３","35.8284061","139.6899736"
"ドトールコーヒーショップ エッソ入間店","埼玉県入間市宮寺２７０７‐２","35.8029053","139.3759013"
"ドトールコーヒーショップ エッソ狭山ヶ丘２１店","埼玉県所沢市林３‐５５６‐１","35.8093776","139.4023962"
"ドトールコーヒーショップ エッソ嵐山店","埼玉県東松山市上唐子１５０２‐１４","36.0384512","139.3347923"
"ドトールコーヒーショップ 浦和東口店","埼玉県さいたま市浦和区東高砂町２‐３","35.8581797","139.6581312"
"ドトールコーヒーショップ 新狭山店","埼玉県狭山市新狭山２‐１５‐３","35.87415920000001","139.4327354"
"ドトールコーヒーショップ エッソ花園インター店","埼玉県深谷市田中２４０８‐１","36.150107","139.2791189"
"ドトールコーヒーショップ エッソ春日部ニュータウン店","埼玉県春日部市谷原３‐１４‐１５","35.9690771","139.7476125"
"ドトールコーヒーショップ みずほ台店","埼玉県富士見市東みずほ台２‐２９‐１","35.8381637","139.5508301"
"ドトールコーヒーショップ 川越西口店","埼玉県川越市脇田本町１‐９","35.9063533","139.4828165"
"ドトールコーヒーショップ エッソ新大宮店","埼玉県さいたま市大宮区三橋３‐２３８‐１","35.8970517","139.6047368"
"ドトールコーヒーショップ エッソ所沢インター店","埼玉県所沢市松郷２３９‐９","35.8006806","139.5014377"
"ドトールコーヒーショップ エッソ久喜青葉ニュータウン店","埼玉県久喜市青毛１‐１‐６","36.0726776","139.6963602"
"ドトールコーヒーショップ エッソ北本ニュータウン店","埼玉県北本市緑３-２０","36.0248322","139.533725"
"ドトールコーヒーショップ 東武新越谷駅店","埼玉県越谷市南越谷１‐１１‐４ 東武伊勢崎線新越谷駅構内３Ｆ","35.8756155","139.7898192"
"ドトールコーヒーショップ エッソ三郷店","埼玉県三郷市彦川戸字駒形向７６２‐１","35.848995","139.864037"
"ドトールコーヒーショップ ティアラ２１熊谷店","埼玉県熊谷市筑波３‐２０２ ティアラ２１","36.13948","139.3918159"
"ドトールコーヒーショップ さいたま新都心店","埼玉県さいたま市大宮区吉敷町４-２６２-１８","35.8943887","139.6337096"
"ドトールコーヒーショップ 新座店","埼玉県新座市野火止５‐３‐１１","35.8038068","139.5561975"
"ドトールコーヒーショップ エッソ川島町店","埼玉県比企郡川島町上伊草５２２‐１","35.9700956","139.4697416"
"ドトールコーヒーショップ エッソ竹間沢店","埼玉県入間郡三芳町竹間沢東３‐８","35.8221378","139.5507918"
"ドトールコーヒーショップ 東武動物公園東口店","埼玉県南埼玉郡宮代町百間２‐３‐２４","36.025273","139.7264293"
"ドトールコーヒーショップ ビバモール加須店","埼玉県加須市下高柳１‐７","36.1122573","139.6084662"
"ドトールコーヒーショップ 鴻巣駅前店","埼玉県鴻巣市本町１‐１‐３ エルミこうのす１Ｆ","36.0600943","139.5097253"
"ドトールコーヒーショップ 北浦和東口店","埼玉県さいたま市浦和区北浦和３‐８‐１５","35.87270850000001","139.6457902"
"ドトールコーヒーショップ 北浦和西口店","埼玉県さいたま市浦和区北浦和４‐１‐１４ 群青ビル１Ｆ","35.8714084","139.6457472"
"ドトールコーヒーショップ 本川越ペペ店","埼玉県川越市新富町１‐２２","35.9146021","139.4818717"
"ドトールコーヒーショップ ファイン越谷店","埼玉県越谷市弥生町４‐１１ ファイン越谷","35.8887819","139.7856053"
"ドトールコーヒーショップ 和光市駅前店","埼玉県和光市丸山台１‐１０‐４","35.7874655","139.6123232"
"ドトールコーヒーショップ 川口東口店","埼玉県川口市栄町３‐５‐１","35.8030608","139.7185691"
"ドトールコーヒーショップ エッソ川越南店","埼玉県川越市熊野町１６‐１","35.8754772","139.5019075"
"ドトールコーヒーショップ エッソ入間ニュータウン店","埼玉県入間市扇町屋１‐８‐１","35.8313439","139.3875914"
"ドトールコーヒーショップ 上尾ショッピングアベニュー店","埼玉県上尾市緑丘３‐３‐１１‐２ Ｐ・Ａ・Ｐ・Ａ　ＰＲＩＮＣＥＳＳ内","35.9874456","139.5804868"
"ドトールコーヒーショップ パルテきたこし店","埼玉県越谷市大沢３‐６‐１ パルテきたこし１Ｆ","35.901974","139.7806244"
"ドトールコーヒーショップ 西武入間ペペ店","埼玉県入間市河原町２‐１","35.8418038","139.3895992"
"ドトールコーヒーショップ エッソプリムローズ朝霞店","埼玉県朝霞市栄町４‐３‐７","35.7868429","139.5975081"
"ドトールコーヒーショップ エッソせんげん台店","埼玉県越谷市千間台東３‐６‐１","35.9329189","139.7787169"
"ドトールコーヒーショップ 大宮ソニックシティ前店","埼玉県さいたま市大宮区桜木町２‐１９４","35.9061398","139.6202045"
"ドトールコーヒーショップ 蕨西口店","埼玉県蕨市中央１‐２３","35.8284061","139.6899736"
"ドトールコーヒーショップ エッソ入間店","埼玉県入間市宮寺２７０７‐２","35.8029053","139.3759013"
"ドトールコーヒーショップ エッソ狭山ヶ丘２１店","埼玉県所沢市林３‐５５６‐１","35.8093776","139.4023962"
"ドトールコーヒーショップ エッソ嵐山店","埼玉県東松山市上唐子１５０２‐１４","36.0384512","139.3347923"
"ドトールコーヒーショップ 浦和東口店","埼玉県さいたま市浦和区東高砂町２‐３","35.8581797","139.6581312"
"ドトールコーヒーショップ 新狭山店","埼玉県狭山市新狭山２‐１５‐３","35.87415920000001","139.4327354"
"ドトールコーヒーショップ エッソ花園インター店","埼玉県深谷市田中２４０８‐１","36.150107","139.2791189"
"ドトールコーヒーショップ エッソ春日部ニュータウン店","埼玉県春日部市谷原３‐１４‐１５","35.9690771","139.7476125"
"ドトールコーヒーショップ みずほ台店","埼玉県富士見市東みずほ台２‐２９‐１","35.8381637","139.5508301"
"ドトールコーヒーショップ 川越西口店","埼玉県川越市脇田本町１‐９","35.9063533","139.4828165"
"ドトールコーヒーショップ エッソ新大宮店","埼玉県さいたま市大宮区三橋３‐２３８‐１","35.8970517","139.6047368"
"ドトールコーヒーショップ エッソ所沢インター店","埼玉県所沢市松郷２３９‐９","35.8006806","139.5014377"
"ドトールコーヒーショップ エッソ久喜青葉ニュータウン店","埼玉県久喜市青毛１‐１‐６","36.0726776","139.6963602"
"ドトールコーヒーショップ エッソ北本ニュータウン店","埼玉県北本市緑３-２０","36.0248322","139.533725"
"ドトールコーヒーショップ 東武新越谷駅店","埼玉県越谷市南越谷１‐１１‐４ 東武伊勢崎線新越谷駅構内３Ｆ","35.8756155","139.7898192"
"ドトールコーヒーショップ エッソ三郷店","埼玉県三郷市彦川戸字駒形向７６２‐１","35.848995","139.864037"
"ドトールコーヒーショップ ティアラ２１熊谷店","埼玉県熊谷市筑波３‐２０２ ティアラ２１","36.13948","139.3918159"
"ドトールコーヒーショップ さいたま新都心店","埼玉県さいたま市大宮区吉敷町４-２６２-１８","35.8943887","139.6337096"
"ドトールコーヒーショップ 新座店","埼玉県新座市野火止５‐３‐１１","35.8038068","139.5561975"
"ドトールコーヒーショップ エッソ川島町店","埼玉県比企郡川島町上伊草５２２‐１","35.9700956","139.4697416"
"ドトールコーヒーショップ エッソ竹間沢店","埼玉県入間郡三芳町竹間沢東３‐８","35.8221378","139.5507918"
"ドトールコーヒーショップ 東武動物公園東口店","埼玉県南埼玉郡宮代町百間２‐３‐２４","36.025273","139.7264293"
"ドトールコーヒーショップ ビバモール加須店","埼玉県加須市下高柳１‐７","36.1122573","139.6084662"
"ドトールコーヒーショップ 鴻巣駅前店","埼玉県鴻巣市本町１‐１‐３ エルミこうのす１Ｆ","36.0600943","139.5097253"
"ドトールコーヒーショップ コスパ松原店","埼玉県草加市松原１‐２‐１５ コスパ松原１Ｆ","35.8435943","139.7996407"
"ドトールコーヒーショップ 与野東口店","埼玉県さいたま市浦和区上木崎１‐１‐２","35.8851317","139.638943"
"ドトールコーヒーショップ 飯能駅前店","埼玉県飯能市柳町２３‐１３","35.8515145","139.3204181"
"ドトールコーヒーショップ 済生会川口総合病院店","埼玉県川口市西川口５‐１１‐５","35.8096871","139.704284"
"ドトールコーヒーショップ イーサイト上尾店","埼玉県上尾市柏座１‐１‐１８","35.9733252","139.5886033"
"ドトールコーヒーショップ 埼玉大井イトーヨーカドー店","埼玉県ふじみ野市西鶴ケ岡１‐３‐１５","35.8639813","139.5023024"
"ドトールコーヒーショップ Ｅｍｉｏ狭山市店","埼玉県狭山市祇園４-５５","35.8568805","139.4132321"
"ドトールコーヒーショップ マーレ武蔵浦和店","埼玉県さいたま市南区白幡５-１９-１９","35.8445198","139.6477658"
"ドトールコーヒーショップ ジョイフル本田幸手店","埼玉県幸手市上高野１２５８-１","36.061024","139.7147317"
"ドトールコーヒーショップ ビーンズ戸田公園店","埼玉県戸田市本町４-１５-１ ビーンズ２Ｆ","35.8076604","139.6782564"
"ドトールコーヒーショップ スーパービバホーム春日部店","埼玉県春日部市下柳７６９-１","35.9883366","139.7849676"
"ドトールコーヒーショップ 大宮ラクーン店","埼玉県さいたま市大宮区宮町１-６０ 大宮ＲＡＫＵＵＮ１Ｆ","35.907548","139.6254069"
"ドトールコーヒーショップ 小手指西友店","埼玉県所沢市小手指町１-２５-８","35.802529","139.4390988"
"ドトールコーヒーショップ 南浦和駅東口店","埼玉県さいたま市南区南浦和２-３６-１５","35.8480254","139.6699971"
"ドトールコーヒーショップ ふじみ野店","埼玉県富士見市ふじみ野西１-２０-２","35.8606573","139.5221673"
"ドトールコーヒーショップ 三郷駅前店","埼玉県三郷市三郷１-１-１０","35.8412757","139.8847456"
"ドトールコーヒーショップ 岩槻駅前店","埼玉県さいたま市岩槻区本町３-２-５ ワッツ１Ｆ","35.9502586","139.6943117"
"ドトールコーヒーショップ アリオ深谷店","埼玉県深谷市上柴町西４‐２‐１４","36.1815372","139.298624"
"ドトールコーヒーショップ 草加駅西口店","埼玉県草加市氷川町２１２１-３","35.8279292","139.8028635"
"ドトールコーヒーショップ 新所沢西口店","埼玉県所沢市緑町１‐１‐１１ 新所沢グリーンハイツ　西武ショッピングプラザ１Ｆ","35.8055675","139.4560138"
"ドトールコーヒーショップ 北浦和東口店","埼玉県さいたま市浦和区北浦和３‐８‐１５","35.87270850000001","139.6457902"
"ドトールコーヒーショップ 北浦和西口店","埼玉県さいたま市浦和区北浦和４‐１‐１４ 群青ビル１Ｆ","35.8714084","139.6457472"
"ドトールコーヒーショップ 本川越ペペ店","埼玉県川越市新富町１‐２２","35.9146021","139.4818717"
"ドトールコーヒーショップ ファイン越谷店","埼玉県越谷市弥生町４‐１１ ファイン越谷","35.8887819","139.7856053"
"ドトールコーヒーショップ 和光市駅前店","埼玉県和光市丸山台１‐１０‐４","35.7874655","139.6123232"
"ドトールコーヒーショップ 川口東口店","埼玉県川口市栄町３‐５‐１","35.8030608","139.7185691"
"ドトールコーヒーショップ エッソ川越南店","埼玉県川越市熊野町１６‐１","35.8754772","139.5019075"
"ドトールコーヒーショップ エッソ入間ニュータウン店","埼玉県入間市扇町屋１‐８‐１","35.8313439","139.3875914"
"ドトールコーヒーショップ 上尾ショッピングアベニュー店","埼玉県上尾市緑丘３‐３‐１１‐２ Ｐ・Ａ・Ｐ・Ａ　ＰＲＩＮＣＥＳＳ内","35.9874456","139.5804868"
"ドトールコーヒーショップ パルテきたこし店","埼玉県越谷市大沢３‐６‐１ パルテきたこし１Ｆ","35.901974","139.7806244"
"ドトールコーヒーショップ 西武入間ペペ店","埼玉県入間市河原町２‐１","35.8418038","139.3895992"
"ドトールコーヒーショップ エッソプリムローズ朝霞店","埼玉県朝霞市栄町４‐３‐７","35.7868429","139.5975081"
"ドトールコーヒーショップ エッソせんげん台店","埼玉県越谷市千間台東３‐６‐１","35.9329189","139.7787169"
"ドトールコーヒーショップ 大宮ソニックシティ前店","埼玉県さいたま市大宮区桜木町２‐１９４","35.9061398","139.6202045"
"ドトールコーヒーショップ 蕨西口店","埼玉県蕨市中央１‐２３","35.8284061","139.6899736"
"ドトールコーヒーショップ エッソ入間店","埼玉県入間市宮寺２７０７‐２","35.8029053","139.3759013"
"ドトールコーヒーショップ エッソ狭山ヶ丘２１店","埼玉県所沢市林３‐５５６‐１","35.8093776","139.4023962"
"ドトールコーヒーショップ エッソ嵐山店","埼玉県東松山市上唐子１５０２‐１４","36.0384512","139.3347923"
"ドトールコーヒーショップ 浦和東口店","埼玉県さいたま市浦和区東高砂町２‐３","35.8581797","139.6581312"
"ドトールコーヒーショップ 新狭山店","埼玉県狭山市新狭山２‐１５‐３","35.87415920000001","139.4327354"
"ドトールコーヒーショップ エッソ花園インター店","埼玉県深谷市田中２４０８‐１","36.150107","139.2791189"
"ドトールコーヒーショップ エッソ春日部ニュータウン店","埼玉県春日部市谷原３‐１４‐１５","35.9690771","139.7476125"
"ドトールコーヒーショップ みずほ台店","埼玉県富士見市東みずほ台２‐２９‐１","35.8381637","139.5508301"
"ドトールコーヒーショップ 川越西口店","埼玉県川越市脇田本町１‐９","35.9063533","139.4828165"
"ドトールコーヒーショップ エッソ新大宮店","埼玉県さいたま市大宮区三橋３‐２３８‐１","35.8970517","139.6047368"
"ドトールコーヒーショップ エッソ所沢インター店","埼玉県所沢市松郷２３９‐９","35.8006806","139.5014377"
"ドトールコーヒーショップ エッソ久喜青葉ニュータウン店","埼玉県久喜市青毛１‐１‐６","36.0726776","139.6963602"
"ドトールコーヒーショップ エッソ北本ニュータウン店","埼玉県北本市緑３-２０","36.0248322","139.533725"
"ドトールコーヒーショップ 東武新越谷駅店","埼玉県越谷市南越谷１‐１１‐４ 東武伊勢崎線新越谷駅構内３Ｆ","35.8756155","139.7898192"
"ドトールコーヒーショップ エッソ三郷店","埼玉県三郷市彦川戸字駒形向７６２‐１","35.848995","139.864037"
"ドトールコーヒーショップ ティアラ２１熊谷店","埼玉県熊谷市筑波３‐２０２ ティアラ２１","36.13948","139.3918159"
"ドトールコーヒーショップ さいたま新都心店","埼玉県さいたま市大宮区吉敷町４-２６２-１８","35.8943887","139.6337096"
"ドトールコーヒーショップ 新座店","埼玉県新座市野火止５‐３‐１１","35.8038068","139.5561975"
"ドトールコーヒーショップ エッソ川島町店","埼玉県比企郡川島町上伊草５２２‐１","35.9700956","139.4697416"
"ドトールコーヒーショップ エッソ竹間沢店","埼玉県入間郡三芳町竹間沢東３‐８","35.8221378","139.5507918"
"ドトールコーヒーショップ 東武動物公園東口店","埼玉県南埼玉郡宮代町百間２‐３‐２４","36.025273","139.7264293"
"ドトールコーヒーショップ ビバモール加須店","埼玉県加須市下高柳１‐７","36.1122573","139.6084662"
"ドトールコーヒーショップ 鴻巣駅前店","埼玉県鴻巣市本町１‐１‐３ エルミこうのす１Ｆ","36.0600943","139.5097253"
"ドトールコーヒーショップ コスパ松原店","埼玉県草加市松原１‐２‐１５ コスパ松原１Ｆ","35.8435943","139.7996407"
"ドトールコーヒーショップ 与野東口店","埼玉県さいたま市浦和区上木崎１‐１‐２","35.8851317","139.638943"
"ドトールコーヒーショップ 飯能駅前店","埼玉県飯能市柳町２３‐１３","35.8515145","139.3204181"
"ドトールコーヒーショップ 済生会川口総合病院店","埼玉県川口市西川口５‐１１‐５","35.8096871","139.704284"
"ドトールコーヒーショップ イーサイト上尾店","埼玉県上尾市柏座１‐１‐１８","35.9733252","139.5886033"
"ドトールコーヒーショップ 埼玉大井イトーヨーカドー店","埼玉県ふじみ野市西鶴ケ岡１‐３‐１５","35.8639813","139.5023024"
"ドトールコーヒーショップ Ｅｍｉｏ狭山市店","埼玉県狭山市祇園４-５５","35.8568805","139.4132321"
"ドトールコーヒーショップ マーレ武蔵浦和店","埼玉県さいたま市南区白幡５-１９-１９","35.8445198","139.6477658"
"ドトールコーヒーショップ ジョイフル本田幸手店","埼玉県幸手市上高野１２５８-１","36.061024","139.7147317"
"ドトールコーヒーショップ ビーンズ戸田公園店","埼玉県戸田市本町４-１５-１ ビーンズ２Ｆ","35.8076604","139.6782564"
"ドトールコーヒーショップ スーパービバホーム春日部店","埼玉県春日部市下柳７６９-１","35.9883366","139.7849676"
"ドトールコーヒーショップ 大宮ラクーン店","埼玉県さいたま市大宮区宮町１-６０ 大宮ＲＡＫＵＵＮ１Ｆ","35.907548","139.6254069"
"ドトールコーヒーショップ 小手指西友店","埼玉県所沢市小手指町１-２５-８","35.802529","139.4390988"
"ドトールコーヒーショップ 南浦和駅東口店","埼玉県さいたま市南区南浦和２-３６-１５","35.8480254","139.6699971"
"ドトールコーヒーショップ ふじみ野店","埼玉県富士見市ふじみ野西１-２０-２","35.8606573","139.5221673"
"ドトールコーヒーショップ 三郷駅前店","埼玉県三郷市三郷１-１-１０","35.8412757","139.8847456"
"ドトールコーヒーショップ 岩槻駅前店","埼玉県さいたま市岩槻区本町３-２-５ ワッツ１Ｆ","35.9502586","139.6943117"
"ドトールコーヒーショップ アリオ深谷店","埼玉県深谷市上柴町西４‐２‐１４","36.1815372","139.298624"
"ドトールコーヒーショップ 草加駅西口店","埼玉県草加市氷川町２１２１-３","35.8279292","139.8028635"
"ドトールコーヒーショップ 新所沢西口店","埼玉県所沢市緑町１‐１‐１１ 新所沢グリーンハイツ　西武ショッピングプラザ１Ｆ","35.8055675","139.4560138"
"ドトールコーヒーショップ レイクタウンアウトレット店","埼玉県越谷市レイクタウン４-１-１","35.87976950000001","139.8256155"
"ドトールコーヒーショップ 所沢店","埼玉県所沢市日吉町３‐５ 第３Ｅ-Ｆビル","35.7877817","139.4724296"
"ドトールコーヒーショップ 所沢東口店","埼玉県所沢市くすのき台１-１４-５","35.786307","139.4738795"
"ドトールコーヒーショップ 桶川マイン店","埼玉県桶川市若宮１-５-２","35.9982779","139.5626215"
"ドトールコーヒーショップ 大宮駅前店","埼玉県さいたま市大宮区桜木町１-８-１","35.9048151","139.6211044"
"ドトールコーヒーショップ イオンレイクタウンｍｏｒｉ店","埼玉県越谷市レイクタウン３-１-１","35.8822609","139.8282069"
"ドトールコーヒーショップ 東大宮東口店","埼玉県さいたま市見沼区東大宮５-２-１１","35.9478954","139.6419799"
"ドトールコーヒーショップ イオン狭山店","埼玉県狭山市上奥富１１２６-１ イオン狭山店２Ｆ","35.8681549","139.4100714"
"ドトールコーヒーショップ 三郷スーパービバホーム店","埼玉県三郷市ピアラシティ１-１-１４０","35.84140560000001","139.8564426"
"エクセシオール カフェ ルミネ大宮店","埼玉県さいたま市大宮区錦町６３０ ルミネ大宮　ルミネ２２Ｆ","35.9069389","139.6248274"
"エクセルシオール カフェ 川越アトレ店","埼玉県川越市脇田町１０５ 川越アトレ２Ｆ","35.9082886","139.483121"
"エクセルシオール カフェ さいたま新都心ランド・アクシス・タワー店","埼玉県さいたま市中央区新都心１１‐２ ランド・アクシス・タワー２Ｆ","35.8934055","139.6320348"
"エクセルシオール カフェ コクーンシティさいたま新都心店","埼玉県さいたま市大宮区吉敷町４-２６７-２ コクーン１２Ｆ","35.89477979999999","139.6361235"
"エクセルシオール カフェ イトーヨーカドー大宮宮原店","埼玉県さいたま市北区宮原町１‐８５４‐１ イトーヨーカドー大宮宮原店２Ｆ","35.932571","139.621885"
"エクセルシオール カフェ 蓮田サービスエリア下り店","埼玉県蓮田市黒浜３４６９","36.0008755","139.666752"
"カフェ マウカメドウズ 大宮そごう店","埼玉県さいたま市大宮区桜木町１-６-２ 大宮そごう３Ｆ","35.9048004","139.6217569"
"カフェ コロラド 南浦和店","埼玉県さいたま市南区南浦和２‐３６‐９ 白井ビル２Ｆ","35.8482883","139.6706208"
"カフェ コロラド 行田市店","埼玉県行田市忍１‐２１‐３","36.1436676","139.4551621"
"カフェ コロラド 浦和店","埼玉県さいたま市浦和区高砂２‐２‐２２","35.8572464","139.6538871"
"カフェ コロラド 川越店","埼玉県川越市新富町１‐９‐１２ ＮＳプラザ川越３","35.9167308","139.4834008"
"ドトールコーヒーショップ 北浦和東口店","埼玉県さいたま市浦和区北浦和３‐８‐１５","35.87270850000001","139.6457902"
"ドトールコーヒーショップ 北浦和西口店","埼玉県さいたま市浦和区北浦和４‐１‐１４ 群青ビル１Ｆ","35.8714084","139.6457472"
"ドトールコーヒーショップ 本川越ペペ店","埼玉県川越市新富町１‐２２","35.9146021","139.4818717"
"ドトールコーヒーショップ ファイン越谷店","埼玉県越谷市弥生町４‐１１ ファイン越谷","35.8887819","139.7856053"
"ドトールコーヒーショップ 和光市駅前店","埼玉県和光市丸山台１‐１０‐４","35.7874655","139.6123232"
"ドトールコーヒーショップ 川口東口店","埼玉県川口市栄町３‐５‐１","35.8030608","139.7185691"
"ドトールコーヒーショップ エッソ川越南店","埼玉県川越市熊野町１６‐１","35.8754772","139.5019075"
"ドトールコーヒーショップ エッソ入間ニュータウン店","埼玉県入間市扇町屋１‐８‐１","35.8313439","139.3875914"
"ドトールコーヒーショップ 上尾ショッピングアベニュー店","埼玉県上尾市緑丘３‐３‐１１‐２ Ｐ・Ａ・Ｐ・Ａ　ＰＲＩＮＣＥＳＳ内","35.9874456","139.5804868"
"ドトールコーヒーショップ パルテきたこし店","埼玉県越谷市大沢３‐６‐１ パルテきたこし１Ｆ","35.901974","139.7806244"
"ドトールコーヒーショップ 西武入間ペペ店","埼玉県入間市河原町２‐１","35.8418038","139.3895992"
"ドトールコーヒーショップ エッソプリムローズ朝霞店","埼玉県朝霞市栄町４‐３‐７","35.7868429","139.5975081"
"ドトールコーヒーショップ エッソせんげん台店","埼玉県越谷市千間台東３‐６‐１","35.9329189","139.7787169"
"ドトールコーヒーショップ 大宮ソニックシティ前店","埼玉県さいたま市大宮区桜木町２‐１９４","35.9061398","139.6202045"
"ドトールコーヒーショップ 蕨西口店","埼玉県蕨市中央１‐２３","35.8284061","139.6899736"
"ドトールコーヒーショップ エッソ入間店","埼玉県入間市宮寺２７０７‐２","35.8029053","139.3759013"
"ドトールコーヒーショップ エッソ狭山ヶ丘２１店","埼玉県所沢市林３‐５５６‐１","35.8093776","139.4023962"
"ドトールコーヒーショップ エッソ嵐山店","埼玉県東松山市上唐子１５０２‐１４","36.0384512","139.3347923"
"ドトールコーヒーショップ 浦和東口店","埼玉県さいたま市浦和区東高砂町２‐３","35.8581797","139.6581312"
"ドトールコーヒーショップ 新狭山店","埼玉県狭山市新狭山２‐１５‐３","35.87415920000001","139.4327354"
"ドトールコーヒーショップ エッソ花園インター店","埼玉県深谷市田中２４０８‐１","36.150107","139.2791189"
"ドトールコーヒーショップ エッソ春日部ニュータウン店","埼玉県春日部市谷原３‐１４‐１５","35.9690771","139.7476125"
"ドトールコーヒーショップ みずほ台店","埼玉県富士見市東みずほ台２‐２９‐１","35.8381637","139.5508301"
"ドトールコーヒーショップ 川越西口店","埼玉県川越市脇田本町１‐９","35.9063533","139.4828165"
"ドトールコーヒーショップ エッソ新大宮店","埼玉県さいたま市大宮区三橋３‐２３８‐１","35.8970517","139.6047368"
"ドトールコーヒーショップ エッソ所沢インター店","埼玉県所沢市松郷２３９‐９","35.8006806","139.5014377"
"ドトールコーヒーショップ エッソ久喜青葉ニュータウン店","埼玉県久喜市青毛１‐１‐６","36.0726776","139.6963602"
"ドトールコーヒーショップ エッソ北本ニュータウン店","埼玉県北本市緑３-２０","36.0248322","139.533725"
"ドトールコーヒーショップ 東武新越谷駅店","埼玉県越谷市南越谷１‐１１‐４ 東武伊勢崎線新越谷駅構内３Ｆ","35.8756155","139.7898192"
"ドトールコーヒーショップ エッソ三郷店","埼玉県三郷市彦川戸字駒形向７６２‐１","35.848995","139.864037"
"ドトールコーヒーショップ ティアラ２１熊谷店","埼玉県熊谷市筑波３‐２０２ ティアラ２１","36.13948","139.3918159"
"ドトールコーヒーショップ さいたま新都心店","埼玉県さいたま市大宮区吉敷町４-２６２-１８","35.8943887","139.6337096"
"ドトールコーヒーショップ 新座店","埼玉県新座市野火止５‐３‐１１","35.8038068","139.5561975"
"ドトールコーヒーショップ エッソ川島町店","埼玉県比企郡川島町上伊草５２２‐１","35.9700956","139.4697416"
"ドトールコーヒーショップ エッソ竹間沢店","埼玉県入間郡三芳町竹間沢東３‐８","35.8221378","139.5507918"
"ドトールコーヒーショップ 東武動物公園東口店","埼玉県南埼玉郡宮代町百間２‐３‐２４","36.025273","139.7264293"
"ドトールコーヒーショップ ビバモール加須店","埼玉県加須市下高柳１‐７","36.1122573","139.6084662"
"ドトールコーヒーショップ 鴻巣駅前店","埼玉県鴻巣市本町１‐１‐３ エルミこうのす１Ｆ","36.0600943","139.5097253"
"ドトールコーヒーショップ コスパ松原店","埼玉県草加市松原１‐２‐１５ コスパ松原１Ｆ","35.8435943","139.7996407"
"ドトールコーヒーショップ 与野東口店","埼玉県さいたま市浦和区上木崎１‐１‐２","35.8851317","139.638943"
"ドトールコーヒーショップ 飯能駅前店","埼玉県飯能市柳町２３‐１３","35.8515145","139.3204181"
"ドトールコーヒーショップ 済生会川口総合病院店","埼玉県川口市西川口５‐１１‐５","35.8096871","139.704284"
"ドトールコーヒーショップ イーサイト上尾店","埼玉県上尾市柏座１‐１‐１８","35.9733252","139.5886033"
"ドトールコーヒーショップ 埼玉大井イトーヨーカドー店","埼玉県ふじみ野市西鶴ケ岡１‐３‐１５","35.8639813","139.5023024"
"ドトールコーヒーショップ Ｅｍｉｏ狭山市店","埼玉県狭山市祇園４-５５","35.8568805","139.4132321"
"ドトールコーヒーショップ マーレ武蔵浦和店","埼玉県さいたま市南区白幡５-１９-１９","35.8445198","139.6477658"
"ドトールコーヒーショップ ジョイフル本田幸手店","埼玉県幸手市上高野１２５８-１","36.061024","139.7147317"
"ドトールコーヒーショップ ビーンズ戸田公園店","埼玉県戸田市本町４-１５-１ ビーンズ２Ｆ","35.8076604","139.6782564"
"ドトールコーヒーショップ スーパービバホーム春日部店","埼玉県春日部市下柳７６９-１","35.9883366","139.7849676"
"ドトールコーヒーショップ 大宮ラクーン店","埼玉県さいたま市大宮区宮町１-６０ 大宮ＲＡＫＵＵＮ１Ｆ","35.907548","139.6254069"
"ドトールコーヒーショップ 小手指西友店","埼玉県所沢市小手指町１-２５-８","35.802529","139.4390988"
"ドトールコーヒーショップ 南浦和駅東口店","埼玉県さいたま市南区南浦和２-３６-１５","35.8480254","139.6699971"
"ドトールコーヒーショップ ふじみ野店","埼玉県富士見市ふじみ野西１-２０-２","35.8606573","139.5221673"
"ドトールコーヒーショップ 三郷駅前店","埼玉県三郷市三郷１-１-１０","35.8412757","139.8847456"
"ドトールコーヒーショップ 岩槻駅前店","埼玉県さいたま市岩槻区本町３-２-５ ワッツ１Ｆ","35.9502586","139.6943117"
"ドトールコーヒーショップ アリオ深谷店","埼玉県深谷市上柴町西４‐２‐１４","36.1815372","139.298624"
"ドトールコーヒーショップ 草加駅西口店","埼玉県草加市氷川町２１２１-３","35.8279292","139.8028635"
"ドトールコーヒーショップ 新所沢西口店","埼玉県所沢市緑町１‐１‐１１ 新所沢グリーンハイツ　西武ショッピングプラザ１Ｆ","35.8055675","139.4560138"
"ドトールコーヒーショップ レイクタウンアウトレット店","埼玉県越谷市レイクタウン４-１-１","35.87976950000001","139.8256155"
"ドトールコーヒーショップ 所沢店","埼玉県所沢市日吉町３‐５ 第３Ｅ-Ｆビル","35.7877817","139.4724296"
"ドトールコーヒーショップ 所沢東口店","埼玉県所沢市くすのき台１-１４-５","35.786307","139.4738795"
"ドトールコーヒーショップ 桶川マイン店","埼玉県桶川市若宮１-５-２","35.9982779","139.5626215"
"ドトールコーヒーショップ 大宮駅前店","埼玉県さいたま市大宮区桜木町１-８-１","35.9048151","139.6211044"
"ドトールコーヒーショップ イオンレイクタウンｍｏｒｉ店","埼玉県越谷市レイクタウン３-１-１","35.8822609","139.8282069"
"ドトールコーヒーショップ 東大宮東口店","埼玉県さいたま市見沼区東大宮５-２-１１","35.9478954","139.6419799"
"ドトールコーヒーショップ イオン狭山店","埼玉県狭山市上奥富１１２６-１ イオン狭山店２Ｆ","35.8681549","139.4100714"
"ドトールコーヒーショップ 三郷スーパービバホーム店","埼玉県三郷市ピアラシティ１-１-１４０","35.84140560000001","139.8564426"
"エクセシオール カフェ ルミネ大宮店","埼玉県さいたま市大宮区錦町６３０ ルミネ大宮　ルミネ２２Ｆ","35.9069389","139.6248274"
"エクセルシオール カフェ 川越アトレ店","埼玉県川越市脇田町１０５ 川越アトレ２Ｆ","35.9082886","139.483121"
"エクセルシオール カフェ さいたま新都心ランド・アクシス・タワー店","埼玉県さいたま市中央区新都心１１‐２ ランド・アクシス・タワー２Ｆ","35.8934055","139.6320348"
"エクセルシオール カフェ コクーンシティさいたま新都心店","埼玉県さいたま市大宮区吉敷町４-２６７-２ コクーン１２Ｆ","35.89477979999999","139.6361235"
"エクセルシオール カフェ イトーヨーカドー大宮宮原店","埼玉県さいたま市北区宮原町１‐８５４‐１ イトーヨーカドー大宮宮原店２Ｆ","35.932571","139.621885"
"エクセルシオール カフェ 蓮田サービスエリア下り店","埼玉県蓮田市黒浜３４６９","36.0008755","139.666752"
"カフェ マウカメドウズ 大宮そごう店","埼玉県さいたま市大宮区桜木町１-６-２ 大宮そごう３Ｆ","35.9048004","139.6217569"
"カフェ コロラド 南浦和店","埼玉県さいたま市南区南浦和２‐３６‐９ 白井ビル２Ｆ","35.8482883","139.6706208"
"カフェ コロラド 行田市店","埼玉県行田市忍１‐２１‐３","36.1436676","139.4551621"
"カフェ コロラド 浦和店","埼玉県さいたま市浦和区高砂２‐２‐２２","35.8572464","139.6538871"
"カフェ コロラド 川越店","埼玉県川越市新富町１‐９‐１２ ＮＳプラザ川越３","35.9167308","139.4834008"
"カフェ コロラド 東松山店","埼玉県東松山市箭弓町１‐１２‐１６","36.03658240000001","139.4009284"
"カフェ コロラド 松原団地駅前店","埼玉県草加市松原１‐１‐９ ハーモネスプラザ","35.842194","139.799662"
"カフェ コロラド 越谷店","埼玉県越谷市弥生町２‐１２","35.8872346","139.7876492"
"ドトールコーヒーショップ 川越店","埼玉県川越市脇田町６‐５ 沼田ビル","35.9096945","139.4826941"
"ドトールコーヒーショップ 東武朝霞台店","埼玉県朝霞市浜崎９３３ 東武東上線朝霞台駅構内","35.814553","139.587081"
"ドトールコーヒーショップ ららぽーとTOKYO-BAY店","千葉県船橋市浜町２‐１‐１ ららぽーとＴＯＫＹＯ-ＢＡＹ４６５","35.686249","139.9900635"
"ドトールコーヒーショップ 南行徳店","千葉県市川市南行徳１‐２０‐１３ 第２エディフシオ１Ｆ","35.6725483","139.9007724"
"エクセルシオール カフェ 自由が丘駅前店","東京都目黒区自由が丘２‐１１‐１ ジェイフェイスクリヤマビル１Ｆ・２Ｆ","35.6078216","139.6681055"
"カフェ コロラド 下丸子店","東京都大田区下丸子３‐６‐７ 東家ビル２Ｆ","35.5710609","139.685993"
"ドトールコーヒーショップ 鶴見西口店","神奈川県横浜市鶴見区豊岡町２‐３‐１０３ Ｆｕｇａ３内","35.5089009","139.6749931"
"ドトールコーヒーショップ 相模原駅前店","神奈川県相模原市中央区相模原１‐１‐１９ 相模原ｉｔ’ｓ３Ｆ","35.5813465","139.3703293"
"ル サロンド ニナス・クイーンズスクエア横浜店","神奈川県横浜市西区みなとみらい２-３-９ ［アット！］１ｓｔ　２Ｆ","35.4561285","139.6337281"
"オーセンティック カフェラミル・横浜ジョイナス クラシック店","神奈川県横浜市西区南幸１-５ 新相鉄ビルＢ１","35.4639622","139.6201513"
"ドトールコーヒーショップ 新潟万代シティ店","新潟県新潟市中央区万代１‐４‐３５ 損保ジャパン・アクサ新潟ビル１Ｆ","37.9165178","139.0567973"
"ドトールコーヒーショップ カラフルタウン岐阜店","岐阜県岐阜市柳津町丸野３‐３ レインボーモール棟１Ｆ　１１３区画","35.3623076","136.7281989"
"ドトールコーヒーショップ 地下鉄金山店","愛知県名古屋市中区金山１‐１３‐１１先 名古屋市営地下鉄名城線改札内","35.1438142","136.9016243"
"ドトールコーヒーショップ 福岡空港国内線ゲート内店","福岡県福岡市博多区大字下臼井７７８-１ 国内線旅客ターミナル２Ｆゲート内","33.5994437","130.4468889"
"ドトールコーヒーショップ 浦安南口店","千葉県浦安市北栄１‐１３‐２５ 西友浦安店パート２館１Ｆ","35.6659211","139.8936761"
"ドトールコーヒーショップ 本八幡南口店","千葉県市川市南八幡４-１-１３ ＤＡＩＫＩＣＨＩビル","35.7207466","139.9273346"
"ドトールコーヒーショップ 西船橋北口店","千葉県船橋市西船４‐２６‐８","35.708302","139.9597051"
"ドトールコーヒーショップ 千葉銀座通り店","千葉県千葉市中央区中央３‐４‐１１ 千葉銀座第一ビル１Ｆ","35.6088588","140.1218986"
"ドトールコーヒーショップ 柏高島屋ステーションモール店","千葉県柏市末広町８‐１８","35.8640906","139.9705538"
"ドトールコーヒーショップ 新浦安モナ店","千葉県浦安市入船１‐５‐１","35.6488926","139.9134359"
"ドトールコーヒーショップ 成田空港第１ターミナルビル店","千葉県成田市 成田空港第１旅客ターミナルビル第１サテライト","35.7640405","140.3836873"
"ドトールコーヒーショップ エッソ千葉ニュータウン北店","千葉県白井市武西１１４１‐２","35.7963836","140.1038276"
"ドトールコーヒーショップ エッソ柏の葉店","千葉県流山市青田４３‐１","35.898697","139.9228793"
"ドトールコーヒーショップ 検見川浜店","千葉県千葉市美浜区真砂４‐２‐８","35.6386412","140.0597102"
"ドトールコーヒーショップ 我孫子南口店","千葉県我孫子市本町２‐１‐２","35.8722099","140.010691"
"ドトールコーヒーショップ メルクス新習志野店","千葉県習志野市茜浜２‐２‐１ メルクス新習志野","35.665917","140.013089"
"ドトールコーヒーショップ エッソゆりのき台店","千葉県八千代市大和田新田３１４‐１１","35.724632","140.096431"
"ドトールコーヒーショップ 五井駅西口店","千葉県市原市五井中央西２‐２‐５ サンパークビル１Ｆ","35.5141188","140.0895288"
"ドトールコーヒーショップ 新松戸店","千葉県松戸市新松戸４‐５２‐３","35.826425","139.9160488"
"ドトールコーヒーショップ 松戸伊勢丹前店","千葉県松戸市松戸１３０５‐２","35.7829857","139.8992101"
"ドトールコーヒーショップ 稲毛東口店","千葉県千葉市稲毛区小仲台２‐４‐１０","35.6379637","140.0926904"
"ドトールコーヒーショップ シャポー市川店","千葉県市川市市川１‐１‐１","35.729338","139.9095502"
"ドトールコーヒーショップ エッソ公津の杜店","千葉県成田市公津の杜２‐２７‐１１","35.7589709","140.2980172"
"ドトールコーヒーショップ エッソ常盤平店","千葉県松戸市金ヶ作騎射立場９３‐１","35.804129","139.946831"
"ドトールコーヒーショップ 浦安南口店","千葉県浦安市北栄１‐１３‐２５ 西友浦安店パート２館１Ｆ","35.6659211","139.8936761"
"ドトールコーヒーショップ 本八幡南口店","千葉県市川市南八幡４-１-１３ ＤＡＩＫＩＣＨＩビル","35.7207466","139.9273346"
"ドトールコーヒーショップ 西船橋北口店","千葉県船橋市西船４‐２６‐８","35.708302","139.9597051"
"ドトールコーヒーショップ 千葉銀座通り店","千葉県千葉市中央区中央３‐４‐１１ 千葉銀座第一ビル１Ｆ","35.6088588","140.1218986"
"ドトールコーヒーショップ 柏高島屋ステーションモール店","千葉県柏市末広町８‐１８","35.8640906","139.9705538"
"ドトールコーヒーショップ 新浦安モナ店","千葉県浦安市入船１‐５‐１","35.6488926","139.9134359"
"ドトールコーヒーショップ 成田空港第１ターミナルビル店","千葉県成田市 成田空港第１旅客ターミナルビル第１サテライト","35.7640405","140.3836873"
"ドトールコーヒーショップ エッソ千葉ニュータウン北店","千葉県白井市武西１１４１‐２","35.7963836","140.1038276"
"ドトールコーヒーショップ エッソ柏の葉店","千葉県流山市青田４３‐１","35.898697","139.9228793"
"ドトールコーヒーショップ 検見川浜店","千葉県千葉市美浜区真砂４‐２‐８","35.6386412","140.0597102"
"ドトールコーヒーショップ 我孫子南口店","千葉県我孫子市本町２‐１‐２","35.8722099","140.010691"
"ドトールコーヒーショップ メルクス新習志野店","千葉県習志野市茜浜２‐２‐１ メルクス新習志野","35.665917","140.013089"
"ドトールコーヒーショップ エッソゆりのき台店","千葉県八千代市大和田新田３１４‐１１","35.724632","140.096431"
"ドトールコーヒーショップ 五井駅西口店","千葉県市原市五井中央西２‐２‐５ サンパークビル１Ｆ","35.5141188","140.0895288"
"ドトールコーヒーショップ 新松戸店","千葉県松戸市新松戸４‐５２‐３","35.826425","139.9160488"
"ドトールコーヒーショップ 松戸伊勢丹前店","千葉県松戸市松戸１３０５‐２","35.7829857","139.8992101"
"ドトールコーヒーショップ 稲毛東口店","千葉県千葉市稲毛区小仲台２‐４‐１０","35.6379637","140.0926904"
"ドトールコーヒーショップ シャポー市川店","千葉県市川市市川１‐１‐１","35.729338","139.9095502"
"ドトールコーヒーショップ エッソ公津の杜店","千葉県成田市公津の杜２‐２７‐１１","35.7589709","140.2980172"
"ドトールコーヒーショップ エッソ常盤平店","千葉県松戸市金ヶ作騎射立場９３‐１","35.804129","139.946831"
"ドトールコーヒーショップ 新浦安イトーヨーカドー店","千葉県浦安市明海４‐１‐１ イトーヨーカドー新浦安店１Ｆ","35.6433168","139.9229882"
"ドトールコーヒーショップ エッソ千葉都町店","千葉県千葉市中央区都町２‐６‐２８","35.6097096","140.1370104"
"ドトールコーヒーショップ エッソ流山店","千葉県流山市南流山６‐２８‐１","35.8414897","139.8977139"
"ドトールコーヒーショップ ジョイフル本田千葉ニュータウン店","千葉県印西市牧の原２-１ ジョイフル本田２Ｆ","35.806848","140.1555933"
"ドトールコーヒーショップ エッソユーカリ店","千葉県佐倉市上座５５８","35.7207032","140.1509697"
"ドトールコーヒーショップ エッソ国分寺台店","千葉県市原市北国分寺台３‐１２‐８","35.5120388","140.1160395"
"ドトールコーヒーショップ エッソ野田店","千葉県野田市泉３‐１‐６","35.9793531","139.8626276"
"ドトールコーヒーショップ エッソ大宮台店","千葉県千葉市若葉区大宮町２１３２‐１","35.586595","140.1812793"
"ドトールコーヒーショップ 船橋駅南口店","千葉県船橋市本町１‐３‐１ 船橋ＦＡＣＥ１Ｆ","35.7007064","139.9855281"
"ドトールコーヒーショップ エッソ千代田ニュータウン店","千葉県四街道市物井字清水１４４５‐７","35.686668","140.183419"
"ドトールコーヒーショップ 京成成田店","千葉県成田市花崎町８１６-１５ プライムレーベル成田１Ｆ","35.7770853","140.315667"
"ドトールコーヒーショップ 八千代台店","千葉県八千代市八千代台東１‐２‐１４","35.7000958","140.0918026"
"ドトールコーヒーショップ 東武船橋駅店","千葉県船橋市本町７‐１‐１","35.7014438","139.986026"
"ドトールコーヒーショップ アトレ新浦安店","千葉県浦安市入船１‐１‐１","35.64937310000001","139.9124915"
"ドトールコーヒーショップ エッソ浜野インター店","千葉県千葉市中央区浜野町１３５-１","35.5482542","140.1420162"
"ドトールコーヒーショップ スカイプラザ柏店","千葉県柏市柏１‐１‐２０ スカイプラザ１Ｆ","35.8622687","139.972087"
"ドトールコーヒーショップ 妙典駅前店","千葉県市川市富浜１‐３‐２","35.6915631","139.9255558"
"ドトールコーヒーショップ 都賀店","千葉県千葉市若葉区都賀３‐５‐１","35.6361905","140.1498778"
"ドトールコーヒーショップ 船橋北口店","千葉県船橋市本町５‐４‐５ プラウドタワー船橋Ｓ‐２","35.702777","139.986137"
"ドトールコーヒーショップ 浦安南口店","千葉県浦安市北栄１‐１３‐２５ 西友浦安店パート２館１Ｆ","35.6659211","139.8936761"
"ドトールコーヒーショップ 本八幡南口店","千葉県市川市南八幡４-１-１３ ＤＡＩＫＩＣＨＩビル","35.7207466","139.9273346"
"ドトールコーヒーショップ 西船橋北口店","千葉県船橋市西船４‐２６‐８","35.708302","139.9597051"
"ドトールコーヒーショップ 千葉銀座通り店","千葉県千葉市中央区中央３‐４‐１１ 千葉銀座第一ビル１Ｆ","35.6088588","140.1218986"
"ドトールコーヒーショップ 柏高島屋ステーションモール店","千葉県柏市末広町８‐１８","35.8640906","139.9705538"
"ドトールコーヒーショップ 新浦安モナ店","千葉県浦安市入船１‐５‐１","35.6488926","139.9134359"
"ドトールコーヒーショップ 成田空港第１ターミナルビル店","千葉県成田市 成田空港第１旅客ターミナルビル第１サテライト","35.7640405","140.3836873"
"ドトールコーヒーショップ エッソ千葉ニュータウン北店","千葉県白井市武西１１４１‐２","35.7963836","140.1038276"
"ドトールコーヒーショップ エッソ柏の葉店","千葉県流山市青田４３‐１","35.898697","139.9228793"
"ドトールコーヒーショップ 検見川浜店","千葉県千葉市美浜区真砂４‐２‐８","35.6386412","140.0597102"
"ドトールコーヒーショップ 我孫子南口店","千葉県我孫子市本町２‐１‐２","35.8722099","140.010691"
"ドトールコーヒーショップ メルクス新習志野店","千葉県習志野市茜浜２‐２‐１ メルクス新習志野","35.665917","140.013089"
"ドトールコーヒーショップ エッソゆりのき台店","千葉県八千代市大和田新田３１４‐１１","35.724632","140.096431"
"ドトールコーヒーショップ 五井駅西口店","千葉県市原市五井中央西２‐２‐５ サンパークビル１Ｆ","35.5141188","140.0895288"
"ドトールコーヒーショップ 新松戸店","千葉県松戸市新松戸４‐５２‐３","35.826425","139.9160488"
"ドトールコーヒーショップ 松戸伊勢丹前店","千葉県松戸市松戸１３０５‐２","35.7829857","139.8992101"
"ドトールコーヒーショップ 稲毛東口店","千葉県千葉市稲毛区小仲台２‐４‐１０","35.6379637","140.0926904"
"ドトールコーヒーショップ シャポー市川店","千葉県市川市市川１‐１‐１","35.729338","139.9095502"
"ドトールコーヒーショップ エッソ公津の杜店","千葉県成田市公津の杜２‐２７‐１１","35.7589709","140.2980172"
"ドトールコーヒーショップ エッソ常盤平店","千葉県松戸市金ヶ作騎射立場９３‐１","35.804129","139.946831"
"ドトールコーヒーショップ 新浦安イトーヨーカドー店","千葉県浦安市明海４‐１‐１ イトーヨーカドー新浦安店１Ｆ","35.6433168","139.9229882"
"ドトールコーヒーショップ エッソ千葉都町店","千葉県千葉市中央区都町２‐６‐２８","35.6097096","140.1370104"
"ドトールコーヒーショップ エッソ流山店","千葉県流山市南流山６‐２８‐１","35.8414897","139.8977139"
"ドトールコーヒーショップ ジョイフル本田千葉ニュータウン店","千葉県印西市牧の原２-１ ジョイフル本田２Ｆ","35.806848","140.1555933"
"ドトールコーヒーショップ エッソユーカリ店","千葉県佐倉市上座５５８","35.7207032","140.1509697"
"ドトールコーヒーショップ エッソ国分寺台店","千葉県市原市北国分寺台３‐１２‐８","35.5120388","140.1160395"
"ドトールコーヒーショップ エッソ野田店","千葉県野田市泉３‐１‐６","35.9793531","139.8626276"
"ドトールコーヒーショップ エッソ大宮台店","千葉県千葉市若葉区大宮町２１３２‐１","35.586595","140.1812793"
"ドトールコーヒーショップ 船橋駅南口店","千葉県船橋市本町１‐３‐１ 船橋ＦＡＣＥ１Ｆ","35.7007064","139.9855281"
"ドトールコーヒーショップ エッソ千代田ニュータウン店","千葉県四街道市物井字清水１４４５‐７","35.686668","140.183419"
"ドトールコーヒーショップ 京成成田店","千葉県成田市花崎町８１６-１５ プライムレーベル成田１Ｆ","35.7770853","140.315667"
"ドトールコーヒーショップ 八千代台店","千葉県八千代市八千代台東１‐２‐１４","35.7000958","140.0918026"
"ドトールコーヒーショップ 東武船橋駅店","千葉県船橋市本町７‐１‐１","35.7014438","139.986026"
"ドトールコーヒーショップ アトレ新浦安店","千葉県浦安市入船１‐１‐１","35.64937310000001","139.9124915"
"ドトールコーヒーショップ エッソ浜野インター店","千葉県千葉市中央区浜野町１３５-１","35.5482542","140.1420162"
"ドトールコーヒーショップ スカイプラザ柏店","千葉県柏市柏１‐１‐２０ スカイプラザ１Ｆ","35.8622687","139.972087"
"ドトールコーヒーショップ 妙典駅前店","千葉県市川市富浜１‐３‐２","35.6915631","139.9255558"
"ドトールコーヒーショップ 都賀店","千葉県千葉市若葉区都賀３‐５‐１","35.6361905","140.1498778"
"ドトールコーヒーショップ 船橋北口店","千葉県船橋市本町５‐４‐５ プラウドタワー船橋Ｓ‐２","35.702777","139.986137"
"ドトールコーヒーショップ 千葉駅東口店","千葉県千葉市中央区新千葉１‐１‐１","35.6123889","140.1146008"
"ドトールコーヒーショップ ボンベルタ成田店","千葉県成田市赤坂２‐１‐１０ ボンベルタ成田２Ｆ","35.7782905","140.2903589"
"ドトールコーヒーショップ アリオ蘇我店","千葉県千葉市中央区川崎町５２‐７","35.5874948","140.1227288"
"ドトールコーヒーショップ 西船橋南口店","千葉県船橋市印内町５８４‐１","35.7065411","139.9598052"
"ドトールコーヒーショップ 市川総合病院店","千葉県市川市菅野５‐１１‐１３ 東京歯科大学市川総合病院","35.73341509999999","139.9222437"
"ドトールコーヒーショップ 原木中山店","千葉県船橋市本中山７‐１１５７‐２","35.7159067","139.9443645"
"ドトールコーヒーショップ 帝京大学ちば総合医療センター店","千葉県市原市姉崎３４２６‐３ 帝京大学ちば総合医療センター内","35.4659682","140.0627286"
"ドトールコーヒーショップ 千葉県庁前駅前店","千葉県千葉市中央区長洲１‐９‐１ 千葉県警察本部１Ｆ","35.6029053","140.1232845"
"ドトールコーヒーショップ 幕張テクノガーデン店","千葉県千葉市美浜区中瀬１‐３ 幕張テクノガーデンＦ棟１Ｆ　Ｂ１０５","35.6516737","140.0413878"
"ドトールコーヒーショップ 旭中央病院店","千葉県旭市イ１３２６","35.7171623","140.6625846"
"ドトールコーヒーショップ 松戸東口店","千葉県松戸市松戸１２２６-５ 桐林ビル２Ｆ・３Ｆ・４Ｆ","35.7838795","139.9019279"
"ドトールコーヒーショップ 下総中山北口店","千葉県船橋市本中山２-１６-１","35.714768","139.9437034"
"ドトールコーヒーショップ 成田空港第２ターミナルビル店","千葉県成田市古込１-１","35.773585","140.3883048"
"ドトールコーヒーショップ 国立がん研究センター東病院店","千葉県柏市柏の葉６-５-１","35.8997784","139.9408133"
"ドトールコーヒーショップ イオンモール幕張新都心店","千葉県千葉市美浜区豊砂１-８ イオン幕張新都心ペットモール　１Ｆ","35.6555338","140.0288086"
"ドトールコーヒーショップ 南柏店","千葉県柏市南柏１‐１‐１ スキップ南柏３Ｆ","35.8448227","139.9540408"
"ドトールコーヒーショップ 成田赤十字病院店","千葉県成田市飯田町９０-１","35.7649674","140.3038051"
"ドトールコーヒーショップ 千葉労災病院店","千葉県市原市辰巳台東２-１６","35.5221211","140.1576692"
"ドトールコーヒーショップ 牧の原モア店","千葉県印西市牧の原１-３","35.8057938","140.1625866"
"ドトールコーヒーショップ 浦安南口店","千葉県浦安市北栄１‐１３‐２５ 西友浦安店パート２館１Ｆ","35.6659211","139.8936761"
"ドトールコーヒーショップ 本八幡南口店","千葉県市川市南八幡４-１-１３ ＤＡＩＫＩＣＨＩビル","35.7207466","139.9273346"
"ドトールコーヒーショップ 西船橋北口店","千葉県船橋市西船４‐２６‐８","35.708302","139.9597051"
"ドトールコーヒーショップ 千葉銀座通り店","千葉県千葉市中央区中央３‐４‐１１ 千葉銀座第一ビル１Ｆ","35.6088588","140.1218986"
"ドトールコーヒーショップ 柏高島屋ステーションモール店","千葉県柏市末広町８‐１８","35.8640906","139.9705538"
"ドトールコーヒーショップ 新浦安モナ店","千葉県浦安市入船１‐５‐１","35.6488926","139.9134359"
"ドトールコーヒーショップ 成田空港第１ターミナルビル店","千葉県成田市 成田空港第１旅客ターミナルビル第１サテライト","35.7640405","140.3836873"
"ドトールコーヒーショップ エッソ千葉ニュータウン北店","千葉県白井市武西１１４１‐２","35.7963836","140.1038276"
"ドトールコーヒーショップ エッソ柏の葉店","千葉県流山市青田４３‐１","35.898697","139.9228793"
"ドトールコーヒーショップ 検見川浜店","千葉県千葉市美浜区真砂４‐２‐８","35.6386412","140.0597102"
"ドトールコーヒーショップ 我孫子南口店","千葉県我孫子市本町２‐１‐２","35.8722099","140.010691"
"ドトールコーヒーショップ メルクス新習志野店","千葉県習志野市茜浜２‐２‐１ メルクス新習志野","35.665917","140.013089"
"ドトールコーヒーショップ エッソゆりのき台店","千葉県八千代市大和田新田３１４‐１１","35.724632","140.096431"
"ドトールコーヒーショップ 五井駅西口店","千葉県市原市五井中央西２‐２‐５ サンパークビル１Ｆ","35.5141188","140.0895288"
"ドトールコーヒーショップ 新松戸店","千葉県松戸市新松戸４‐５２‐３","35.826425","139.9160488"
"ドトールコーヒーショップ 松戸伊勢丹前店","千葉県松戸市松戸１３０５‐２","35.7829857","139.8992101"
"ドトールコーヒーショップ 稲毛東口店","千葉県千葉市稲毛区小仲台２‐４‐１０","35.6379637","140.0926904"
"ドトールコーヒーショップ シャポー市川店","千葉県市川市市川１‐１‐１","35.729338","139.9095502"
"ドトールコーヒーショップ エッソ公津の杜店","千葉県成田市公津の杜２‐２７‐１１","35.7589709","140.2980172"
"ドトールコーヒーショップ エッソ常盤平店","千葉県松戸市金ヶ作騎射立場９３‐１","35.804129","139.946831"
"ドトールコーヒーショップ 新浦安イトーヨーカドー店","千葉県浦安市明海４‐１‐１ イトーヨーカドー新浦安店１Ｆ","35.6433168","139.9229882"
"ドトールコーヒーショップ エッソ千葉都町店","千葉県千葉市中央区都町２‐６‐２８","35.6097096","140.1370104"
"ドトールコーヒーショップ エッソ流山店","千葉県流山市南流山６‐２８‐１","35.8414897","139.8977139"
"ドトールコーヒーショップ ジョイフル本田千葉ニュータウン店","千葉県印西市牧の原２-１ ジョイフル本田２Ｆ","35.806848","140.1555933"
"ドトールコーヒーショップ エッソユーカリ店","千葉県佐倉市上座５５８","35.7207032","140.1509697"
"ドトールコーヒーショップ エッソ国分寺台店","千葉県市原市北国分寺台３‐１２‐８","35.5120388","140.1160395"
"ドトールコーヒーショップ エッソ野田店","千葉県野田市泉３‐１‐６","35.9793531","139.8626276"
"ドトールコーヒーショップ エッソ大宮台店","千葉県千葉市若葉区大宮町２１３２‐１","35.586595","140.1812793"
"ドトールコーヒーショップ 船橋駅南口店","千葉県船橋市本町１‐３‐１ 船橋ＦＡＣＥ１Ｆ","35.7007064","139.9855281"
"ドトールコーヒーショップ エッソ千代田ニュータウン店","千葉県四街道市物井字清水１４４５‐７","35.686668","140.183419"
"ドトールコーヒーショップ 京成成田店","千葉県成田市花崎町８１６-１５ プライムレーベル成田１Ｆ","35.7770853","140.315667"
"ドトールコーヒーショップ 八千代台店","千葉県八千代市八千代台東１‐２‐１４","35.7000958","140.0918026"
"ドトールコーヒーショップ 東武船橋駅店","千葉県船橋市本町７‐１‐１","35.7014438","139.986026"
"ドトールコーヒーショップ アトレ新浦安店","千葉県浦安市入船１‐１‐１","35.64937310000001","139.9124915"
"ドトールコーヒーショップ エッソ浜野インター店","千葉県千葉市中央区浜野町１３５-１","35.5482542","140.1420162"
"ドトールコーヒーショップ スカイプラザ柏店","千葉県柏市柏１‐１‐２０ スカイプラザ１Ｆ","35.8622687","139.972087"
"ドトールコーヒーショップ 妙典駅前店","千葉県市川市富浜１‐３‐２","35.6915631","139.9255558"
"ドトールコーヒーショップ 都賀店","千葉県千葉市若葉区都賀３‐５‐１","35.6361905","140.1498778"
"ドトールコーヒーショップ 船橋北口店","千葉県船橋市本町５‐４‐５ プラウドタワー船橋Ｓ‐２","35.702777","139.986137"
"ドトールコーヒーショップ 千葉駅東口店","千葉県千葉市中央区新千葉１‐１‐１","35.6123889","140.1146008"
"ドトールコーヒーショップ ボンベルタ成田店","千葉県成田市赤坂２‐１‐１０ ボンベルタ成田２Ｆ","35.7782905","140.2903589"
"ドトールコーヒーショップ アリオ蘇我店","千葉県千葉市中央区川崎町５２‐７","35.5874948","140.1227288"
"ドトールコーヒーショップ 西船橋南口店","千葉県船橋市印内町５８４‐１","35.7065411","139.9598052"
"ドトールコーヒーショップ 市川総合病院店","千葉県市川市菅野５‐１１‐１３ 東京歯科大学市川総合病院","35.73341509999999","139.9222437"
"ドトールコーヒーショップ 原木中山店","千葉県船橋市本中山７‐１１５７‐２","35.7159067","139.9443645"
"ドトールコーヒーショップ 帝京大学ちば総合医療センター店","千葉県市原市姉崎３４２６‐３ 帝京大学ちば総合医療センター内","35.4659682","140.0627286"
"ドトールコーヒーショップ 千葉県庁前駅前店","千葉県千葉市中央区長洲１‐９‐１ 千葉県警察本部１Ｆ","35.6029053","140.1232845"
"ドトールコーヒーショップ 幕張テクノガーデン店","千葉県千葉市美浜区中瀬１‐３ 幕張テクノガーデンＦ棟１Ｆ　Ｂ１０５","35.6516737","140.0413878"
"ドトールコーヒーショップ 旭中央病院店","千葉県旭市イ１３２６","35.7171623","140.6625846"
"ドトールコーヒーショップ 松戸東口店","千葉県松戸市松戸１２２６-５ 桐林ビル２Ｆ・３Ｆ・４Ｆ","35.7838795","139.9019279"
"ドトールコーヒーショップ 下総中山北口店","千葉県船橋市本中山２-１６-１","35.714768","139.9437034"
"ドトールコーヒーショップ 成田空港第２ターミナルビル店","千葉県成田市古込１-１","35.773585","140.3883048"
"ドトールコーヒーショップ 国立がん研究センター東病院店","千葉県柏市柏の葉６-５-１","35.8997784","139.9408133"
"ドトールコーヒーショップ イオンモール幕張新都心店","千葉県千葉市美浜区豊砂１-８ イオン幕張新都心ペットモール　１Ｆ","35.6555338","140.0288086"
"ドトールコーヒーショップ 南柏店","千葉県柏市南柏１‐１‐１ スキップ南柏３Ｆ","35.8448227","139.9540408"
"ドトールコーヒーショップ 成田赤十字病院店","千葉県成田市飯田町９０-１","35.7649674","140.3038051"
"ドトールコーヒーショップ 千葉労災病院店","千葉県市原市辰巳台東２-１６","35.5221211","140.1576692"
"ドトールコーヒーショップ 牧の原モア店","千葉県印西市牧の原１-３","35.8057938","140.1625866"
"ドトールコーヒーショップ 行徳駅前店","千葉県市川市行徳駅前２-１-１１","35.6833584","139.9139125"
"ドトールコーヒーショップ 流山イトーヨーカドー店","千葉県流山市流山９-８００-２","35.8502189","139.8993718"
"ドトールコーヒーショップ 千葉市中央図書館・生涯学習センター店","千葉県千葉市中央区弁天３-７-７","35.6182462","140.1143309"
"ドトールコーヒーショップ 千葉北総病院店","千葉県印西市鎌苅１７１５","35.7814925","140.1984397"
"ドトールコーヒーショップ エッソ市原五所店","千葉県市原市五所１７００-１","35.5324167","140.110331"
"ドトールコーヒーショップ シャポー本八幡店","千葉県市川市八幡２-１７-１","35.7211922","139.9270686"
"ドトールコーヒーショップ 常盤平店","千葉県松戸市常盤平３-１-１","35.8034073","139.9509306"
"オーセンティック カフェラミル・市川ニッケコルトンプラザ店","千葉県市川市鬼高１-１-１ ニッケコルトンプラザ２Ｆ","35.716674","139.934985"
"エクセルシオール カフェ 津田沼北口店","千葉県習志野市津田沼１‐１‐１ 津田沼駅北口駅ビル３Ｆ・４Ｆ","35.6910776","140.0210451"
"エクセルシオール カフェ 成田空港第２ターミナルビル店","千葉県成田市古込字古込１‐１ 成田空港　第２旅客ターミナルビル本館３Ｆ","35.7738675","140.3872689"
"エクセルシオール カフェ イオンモール幕張新都心店","千葉県千葉市美浜区豊砂１-１ グランドモール２Ｆ","35.6537689","140.031482"
"エクセルシオール カフェ 本八幡駅北口店","千葉県市川市八幡２-１７-１","35.7211922","139.9270686"
"カフェ コロラド 松戸五香店","千葉県松戸市常盤平５‐２０‐１１ 和幸ビル","35.7963421","139.9643899"
"カフェ コロラド 市川宮久保店","千葉県市川市宮久保１‐１３‐３","35.7365062","139.9319511"
"カフェ コロラド 下総中山店","千葉県市川市鬼高２‐１０‐９ 柳沢ビル","35.7141374","139.9409953"
"カフェ コロラド 京成臼井店","千葉県佐倉市王子台１‐２２‐８","35.7301923","140.1820956"
"カフェ コロラド 北小金店","千葉県松戸市小金４４２‐１４ 秋山ビル３Ｆ","35.8330661","139.9309032"
"カフェ コロラド 幕張ベイタウン店","千葉県千葉市美浜区打瀬２‐４ パティオス１番街","35.6422837","140.0459213"
"ドトールコーヒーショップ 神田西口店","東京都千代田区内神田１‐１７ 小堀ビル１Ｆ","35.69146080000001","139.7666157"
"ドトールコーヒーショップ 南青山店","東京都港区南青山５‐９‐２０","35.6633551","139.7111749"
"ドトールコーヒーショップ 西新宿１丁目店","東京都新宿区西新宿１‐１３‐８ 朝日新宿ビル","35.6895336","139.6965701"
"ドトールコーヒーショップ 渋谷１丁目店","東京都渋谷区渋谷１‐１４‐１５","35.6601219","139.7025952"
"ドトールコーヒーショップ 神保町２丁目店","東京都千代田区神田神保町２‐１７ 神田神保町ビル","35.6950747","139.7579348"
"ドトールコーヒーショップ 築地２丁目店","東京都中央区築地２‐１２‐８","35.6679897","139.7720337"
"ドトールコーヒーショップ 東陽町店","東京都江東区東陽４‐５‐１８ メトロハイツ東陽","35.6703347","139.8183035"
"ドトールコーヒーショップ 水道橋東口店","東京都千代田区三崎町２‐１‐１６ プラージュビル１Ｆ","35.7000908","139.7557503"
"ドトールコーヒーショップ 新宿南口店","東京都渋谷区代々木２‐１０‐１ 新宿サンセイビル１Ｆ","35.6880956","139.6983568"
"ドトールコーヒーショップ 八丁堀店","東京都中央区八丁堀２-２６-１５","35.6751195","139.7753361"
"ドトールコーヒーショップ 神保町３丁目店","東京都千代田区神田神保町３‐２","35.696158","139.7544284"
"ドトールコーヒーショップ 新橋銀座口店","東京都港区新橋１‐８‐４ 丸忠ビル１Ｆ","35.6669732","139.7604261"
"ドトールコーヒーショップ 日本橋本町店","東京都中央区日本橋本町２‐３‐１５","35.6875958","139.7756051"
"ドトールコーヒーショップ 四谷３丁目店","東京都新宿区四谷３‐９","35.6877052","139.7199423"
"ドトールコーヒーショップ 京成立石店","東京都葛飾区立石４‐２５‐８ 近江ビル","35.7387151","139.8491305"
"ドトールコーヒーショップ 錦糸町店","東京都墨田区江東橋４‐２７‐１４ 楽天地ビル１Ｆ","35.6964931","139.8157855"
"ドトールコーヒーショップ 神谷町店","東京都港区虎ノ門４‐１‐１０ 青木ビル１Ｆ","35.6643498","139.7448254"
"ドトールコーヒーショップ 大森店","東京都大田区大森北１‐５‐５","35.5873703","139.7282402"
"ドトールコーヒーショップ 人形町３丁目店","東京都中央区日本橋人形町３‐３‐１０ 日本橋ＴＥＣビル","35.6857837","139.7808441"
"ドトールコーヒーショップ 御徒町南口店","東京都台東区上野５‐２０‐６","35.7089183","139.7742183"
"ドトールコーヒーショップ 神田西口店","東京都千代田区内神田１‐１７ 小堀ビル１Ｆ","35.69146080000001","139.7666157"
"ドトールコーヒーショップ 南青山店","東京都港区南青山５‐９‐２０","35.6633551","139.7111749"
"ドトールコーヒーショップ 西新宿１丁目店","東京都新宿区西新宿１‐１３‐８ 朝日新宿ビル","35.6895336","139.6965701"
"ドトールコーヒーショップ 渋谷１丁目店","東京都渋谷区渋谷１‐１４‐１５","35.6601219","139.7025952"
"ドトールコーヒーショップ 神保町２丁目店","東京都千代田区神田神保町２‐１７ 神田神保町ビル","35.6950747","139.7579348"
"ドトールコーヒーショップ 築地２丁目店","東京都中央区築地２‐１２‐８","35.6679897","139.7720337"
"ドトールコーヒーショップ 東陽町店","東京都江東区東陽４‐５‐１８ メトロハイツ東陽","35.6703347","139.8183035"
"ドトールコーヒーショップ 水道橋東口店","東京都千代田区三崎町２‐１‐１６ プラージュビル１Ｆ","35.7000908","139.7557503"
"ドトールコーヒーショップ 新宿南口店","東京都渋谷区代々木２‐１０‐１ 新宿サンセイビル１Ｆ","35.6880956","139.6983568"
"ドトールコーヒーショップ 八丁堀店","東京都中央区八丁堀２-２６-１５","35.6751195","139.7753361"
"ドトールコーヒーショップ 神保町３丁目店","東京都千代田区神田神保町３‐２","35.696158","139.7544284"
"ドトールコーヒーショップ 新橋銀座口店","東京都港区新橋１‐８‐４ 丸忠ビル１Ｆ","35.6669732","139.7604261"
"ドトールコーヒーショップ 日本橋本町店","東京都中央区日本橋本町２‐３‐１５","35.6875958","139.7756051"
"ドトールコーヒーショップ 四谷３丁目店","東京都新宿区四谷３‐９","35.6877052","139.7199423"
"ドトールコーヒーショップ 京成立石店","東京都葛飾区立石４‐２５‐８ 近江ビル","35.7387151","139.8491305"
"ドトールコーヒーショップ 錦糸町店","東京都墨田区江東橋４‐２７‐１４ 楽天地ビル１Ｆ","35.6964931","139.8157855"
"ドトールコーヒーショップ 神谷町店","東京都港区虎ノ門４‐１‐１０ 青木ビル１Ｆ","35.6643498","139.7448254"
"ドトールコーヒーショップ 大森店","東京都大田区大森北１‐５‐５","35.5873703","139.7282402"
"ドトールコーヒーショップ 人形町３丁目店","東京都中央区日本橋人形町３‐３‐１０ 日本橋ＴＥＣビル","35.6857837","139.7808441"
"ドトールコーヒーショップ 御徒町南口店","東京都台東区上野５‐２０‐６","35.7089183","139.7742183"
"ドトールコーヒーショップ 新宿サブナード店","東京都新宿区歌舞伎町１丁目 サブナード地下街１丁目","35.693445","139.7021138"
"ドトールコーヒーショップ 岩本町２丁目店","東京都千代田区岩本町２‐８ 井桁ビル１Ｆ","35.6924406","139.7763305"
"ドトールコーヒーショップ 東中野店","東京都中野区東中野３‐８‐２","35.7068352","139.682737"
"ドトールコーヒーショップ 新川永代通り店","東京都中央区新川１‐２‐１０ 新川武蔵屋ビル１Ｆ","35.6789082","139.7825105"
"ドトールコーヒーショップ 三田３丁目店","東京都港区三田３‐４‐１１","35.6471081","139.7440613"
"ドトールコーヒーショップ 東武浅草北口店","東京都台東区花川戸１‐１０‐２","35.712813","139.7994191"
"ドトールコーヒーショップ 銀座４丁目店","東京都中央区銀座４‐１１‐６ 銀座島倉ビル","35.6698689","139.7687023"
"ドトールコーヒーショップ 新川１丁目店","東京都中央区新川１‐４‐１１","35.6775166","139.7805801"
"ドトールコーヒーショップ 小伝馬町店","東京都中央区日本橋小伝馬町１５‐１６","35.6920093","139.7800769"
"ドトールコーヒーショップ 神田松永町店","東京都千代田区神田松永町１８‐１ ビオレ秋葉原１Ｆ","35.7005888","139.7752879"
"ドトールコーヒーショップ 赤坂２丁目店","東京都港区赤坂２‐１１‐１５","35.6704413","139.7410276"
"ドトールコーヒーショップ サンシャインシティアルパ店","東京都豊島区東池袋３‐１ サンシャインシティ・アルパＢ１Ｆ","35.728955","139.71933"
"ドトールコーヒーショップ 豊田店","東京都日野市多摩平１‐２‐１","35.660394","139.3806835"
"ドトールコーヒーショップ 中目黒店","東京都目黒区上目黒３‐３‐２","35.6445209","139.6985294"
"ドトールコーヒーショップ 調布北口店","東京都調布市小島町１‐１２‐７ 小笠原ビル１Ｆ","35.6535946","139.5431353"
"ドトールコーヒーショップ 恵比寿東店","東京都渋谷区東３‐２５‐５ グランドメゾン恵比寿東","35.6486","139.7102249"
"ドトールコーヒーショップ 東池袋１丁目店","東京都豊島区東池袋１‐１７‐３ ウェルシャン池袋１Ｆ","35.7318611","139.714873"
"ドトールコーヒーショップ 外神田１丁目店","東京都千代田区外神田１‐６‐６","35.6995442","139.769494"
"ドトールコーヒーショップ 大手町ファーストスクエア店","東京都千代田区大手町１‐５‐１ 大手町ファーストスクエアビルＢ１Ｆ","35.6858142","139.7644864"
"ドトールコーヒーショップ 代々木店","東京都渋谷区代々木１‐３６‐７ 代々木駅前ビル１Ｆ","35.6836501","139.7013884"
"ドトールコーヒーショップ 神田西口店","東京都千代田区内神田１‐１７ 小堀ビル１Ｆ","35.69146080000001","139.7666157"
"ドトールコーヒーショップ 南青山店","東京都港区南青山５‐９‐２０","35.6633551","139.7111749"
"ドトールコーヒーショップ 西新宿１丁目店","東京都新宿区西新宿１‐１３‐８ 朝日新宿ビル","35.6895336","139.6965701"
"ドトールコーヒーショップ 渋谷１丁目店","東京都渋谷区渋谷１‐１４‐１５","35.6601219","139.7025952"
"ドトールコーヒーショップ 神保町２丁目店","東京都千代田区神田神保町２‐１７ 神田神保町ビル","35.6950747","139.7579348"
"ドトールコーヒーショップ 築地２丁目店","東京都中央区築地２‐１２‐８","35.6679897","139.7720337"
"ドトールコーヒーショップ 東陽町店","東京都江東区東陽４‐５‐１８ メトロハイツ東陽","35.6703347","139.8183035"
"ドトールコーヒーショップ 水道橋東口店","東京都千代田区三崎町２‐１‐１６ プラージュビル１Ｆ","35.7000908","139.7557503"
"ドトールコーヒーショップ 新宿南口店","東京都渋谷区代々木２‐１０‐１ 新宿サンセイビル１Ｆ","35.6880956","139.6983568"
"ドトールコーヒーショップ 八丁堀店","東京都中央区八丁堀２-２６-１５","35.6751195","139.7753361"
"ドトールコーヒーショップ 神保町３丁目店","東京都千代田区神田神保町３‐２","35.696158","139.7544284"
"ドトールコーヒーショップ 新橋銀座口店","東京都港区新橋１‐８‐４ 丸忠ビル１Ｆ","35.6669732","139.7604261"
"ドトールコーヒーショップ 日本橋本町店","東京都中央区日本橋本町２‐３‐１５","35.6875958","139.7756051"
"ドトールコーヒーショップ 四谷３丁目店","東京都新宿区四谷３‐９","35.6877052","139.7199423"
"ドトールコーヒーショップ 京成立石店","東京都葛飾区立石４‐２５‐８ 近江ビル","35.7387151","139.8491305"
"ドトールコーヒーショップ 錦糸町店","東京都墨田区江東橋４‐２７‐１４ 楽天地ビル１Ｆ","35.6964931","139.8157855"
"ドトールコーヒーショップ 神谷町店","東京都港区虎ノ門４‐１‐１０ 青木ビル１Ｆ","35.6643498","139.7448254"
"ドトールコーヒーショップ 大森店","東京都大田区大森北１‐５‐５","35.5873703","139.7282402"
"ドトールコーヒーショップ 人形町３丁目店","東京都中央区日本橋人形町３‐３‐１０ 日本橋ＴＥＣビル","35.6857837","139.7808441"
"ドトールコーヒーショップ 御徒町南口店","東京都台東区上野５‐２０‐６","35.7089183","139.7742183"
"ドトールコーヒーショップ 新宿サブナード店","東京都新宿区歌舞伎町１丁目 サブナード地下街１丁目","35.693445","139.7021138"
"ドトールコーヒーショップ 岩本町２丁目店","東京都千代田区岩本町２‐８ 井桁ビル１Ｆ","35.6924406","139.7763305"
"ドトールコーヒーショップ 東中野店","東京都中野区東中野３‐８‐２","35.7068352","139.682737"
"ドトールコーヒーショップ 新川永代通り店","東京都中央区新川１‐２‐１０ 新川武蔵屋ビル１Ｆ","35.6789082","139.7825105"
"ドトールコーヒーショップ 三田３丁目店","東京都港区三田３‐４‐１１","35.6471081","139.7440613"
"ドトールコーヒーショップ 東武浅草北口店","東京都台東区花川戸１‐１０‐２","35.712813","139.7994191"
"ドトールコーヒーショップ 銀座４丁目店","東京都中央区銀座４‐１１‐６ 銀座島倉ビル","35.6698689","139.7687023"
"ドトールコーヒーショップ 新川１丁目店","東京都中央区新川１‐４‐１１","35.6775166","139.7805801"
"ドトールコーヒーショップ 小伝馬町店","東京都中央区日本橋小伝馬町１５‐１６","35.6920093","139.7800769"
"ドトールコーヒーショップ 神田松永町店","東京都千代田区神田松永町１８‐１ ビオレ秋葉原１Ｆ","35.7005888","139.7752879"
"ドトールコーヒーショップ 赤坂２丁目店","東京都港区赤坂２‐１１‐１５","35.6704413","139.7410276"
"ドトールコーヒーショップ サンシャインシティアルパ店","東京都豊島区東池袋３‐１ サンシャインシティ・アルパＢ１Ｆ","35.728955","139.71933"
"ドトールコーヒーショップ 豊田店","東京都日野市多摩平１‐２‐１","35.660394","139.3806835"
"ドトールコーヒーショップ 中目黒店","東京都目黒区上目黒３‐３‐２","35.6445209","139.6985294"
"ドトールコーヒーショップ 調布北口店","東京都調布市小島町１‐１２‐７ 小笠原ビル１Ｆ","35.6535946","139.5431353"
"ドトールコーヒーショップ 恵比寿東店","東京都渋谷区東３‐２５‐５ グランドメゾン恵比寿東","35.6486","139.7102249"
"ドトールコーヒーショップ 東池袋１丁目店","東京都豊島区東池袋１‐１７‐３ ウェルシャン池袋１Ｆ","35.7318611","139.714873"
"ドトールコーヒーショップ 外神田１丁目店","東京都千代田区外神田１‐６‐６","35.6995442","139.769494"
"ドトールコーヒーショップ 大手町ファーストスクエア店","東京都千代田区大手町１‐５‐１ 大手町ファーストスクエアビルＢ１Ｆ","35.6858142","139.7644864"
"ドトールコーヒーショップ 代々木店","東京都渋谷区代々木１‐３６‐７ 代々木駅前ビル１Ｆ","35.6836501","139.7013884"
"ドトールコーヒーショップ 日本橋小舟町店","東京都中央区日本橋小舟町１１‐８","35.6875459","139.7784466"
"ドトールコーヒーショップ 曙橋店","東京都新宿区住吉町７‐１ 福松ビル１Ｆ","35.6925852","139.7232326"
"ドトールコーヒーショップ 渋谷３丁目北店","東京都渋谷区渋谷３‐６‐２ エクラート渋谷ビル","35.6579154","139.7049787"
"ドトールコーヒーショップ 神田淡路町店","東京都千代田区神田須田町１‐２‐１ カルフール神田","35.6951557","139.767624"
"ドトールコーヒーショップ ひばりヶ丘南口店","東京都西東京市住吉町３‐９‐８","35.75101009999999","139.5455296"
"ドトールコーヒーショップ 蒲田東口店","東京都大田区蒲田５‐１１‐１０","35.5630982","139.7169787"
"ドトールコーヒーショップ 浜松町１丁目店","東京都港区浜松町１‐２９‐９ ＦＡ小林ビル","35.6568659","139.7556846"
"ドトールコーヒーショップ 武蔵小山店","東京都品川区小山３‐２２‐１７","35.6190047","139.7055434"
"ドトールコーヒーショップ 田町センタービル店","東京都港区芝５‐３４‐７ 田町センタービル","35.6462308","139.7469212"
"ドトールコーヒーショップ 成城学園北口店","東京都世田谷区成城６‐９‐１ 五和ビル１Ｆ","35.640476","139.5984207"
"ドトールコーヒーショップ 尾山台店","東京都世田谷区尾山台３‐３４‐８","35.60692969999999","139.6532791"
"ドトールコーヒーショップ 築地聖路加通り店","東京都中央区築地３‐７‐１ 築地吉本ビル","35.6679528","139.7736346"
"ドトールコーヒーショップ 市ヶ谷駅前店","東京都千代田区九段南４‐８‐２７ 重盛ビル","35.6914213","139.7378398"
"ドトールコーヒーショップ 学芸大学店","東京都目黒区鷹番２‐１６‐１８","35.6288863","139.6871309"
"ドトールコーヒーショップ 台東４丁目店","東京都台東区台東４‐２８‐８ 跡部ビル１Ｆ","35.7071076","139.7794625"
"ドトールコーヒーショップ 西池袋１丁目メトロポリタン通り店","東京都豊島区西池袋１‐９‐１１ カーサ池袋１Ｆ","35.728962","139.7087288"
"ドトールコーヒーショップ 新宿アイランド店","東京都新宿区西新宿６‐４‐１ 新宿アイランドアトリウム１Ｆ","35.6938971","139.6931715"
"ドトールコーヒーショップ 吉祥寺元町通り店","東京都武蔵野市吉祥寺本町１‐８‐１０ 元町八番館ビル","35.7048796","139.5784439"
"ドトールコーヒーショップ 原宿竹下口店","東京都渋谷区神宮前１‐１７‐１ ルポンテビル１Ｆ","35.6714095","139.7032234"
"ドトールコーヒーショップ サンライズ蒲田店","東京都大田区西蒲田７‐６２‐４","35.5621539","139.7129903"
"ドトールコーヒーショップ 神田西口店","東京都千代田区内神田１‐１７ 小堀ビル１Ｆ","35.69146080000001","139.7666157"
"ドトールコーヒーショップ 南青山店","東京都港区南青山５‐９‐２０","35.6633551","139.7111749"
"ドトールコーヒーショップ 西新宿１丁目店","東京都新宿区西新宿１‐１３‐８ 朝日新宿ビル","35.6895336","139.6965701"
"ドトールコーヒーショップ 渋谷１丁目店","東京都渋谷区渋谷１‐１４‐１５","35.6601219","139.7025952"
"ドトールコーヒーショップ 神保町２丁目店","東京都千代田区神田神保町２‐１７ 神田神保町ビル","35.6950747","139.7579348"
"ドトールコーヒーショップ 築地２丁目店","東京都中央区築地２‐１２‐８","35.6679897","139.7720337"
"ドトールコーヒーショップ 東陽町店","東京都江東区東陽４‐５‐１８ メトロハイツ東陽","35.6703347","139.8183035"
"ドトールコーヒーショップ 水道橋東口店","東京都千代田区三崎町２‐１‐１６ プラージュビル１Ｆ","35.7000908","139.7557503"
"ドトールコーヒーショップ 新宿南口店","東京都渋谷区代々木２‐１０‐１ 新宿サンセイビル１Ｆ","35.6880956","139.6983568"
"ドトールコーヒーショップ 八丁堀店","東京都中央区八丁堀２-２６-１５","35.6751195","139.7753361"
"ドトールコーヒーショップ 神保町３丁目店","東京都千代田区神田神保町３‐２","35.696158","139.7544284"
"ドトールコーヒーショップ 新橋銀座口店","東京都港区新橋１‐８‐４ 丸忠ビル１Ｆ","35.6669732","139.7604261"
"ドトールコーヒーショップ 日本橋本町店","東京都中央区日本橋本町２‐３‐１５","35.6875958","139.7756051"
"ドトールコーヒーショップ 四谷３丁目店","東京都新宿区四谷３‐９","35.6877052","139.7199423"
"ドトールコーヒーショップ 京成立石店","東京都葛飾区立石４‐２５‐８ 近江ビル","35.7387151","139.8491305"
"ドトールコーヒーショップ 錦糸町店","東京都墨田区江東橋４‐２７‐１４ 楽天地ビル１Ｆ","35.6964931","139.8157855"
"ドトールコーヒーショップ 神谷町店","東京都港区虎ノ門４‐１‐１０ 青木ビル１Ｆ","35.6643498","139.7448254"
"ドトールコーヒーショップ 大森店","東京都大田区大森北１‐５‐５","35.5873703","139.7282402"
"ドトールコーヒーショップ 人形町３丁目店","東京都中央区日本橋人形町３‐３‐１０ 日本橋ＴＥＣビル","35.6857837","139.7808441"
"ドトールコーヒーショップ 御徒町南口店","東京都台東区上野５‐２０‐６","35.7089183","139.7742183"
"ドトールコーヒーショップ 新宿サブナード店","東京都新宿区歌舞伎町１丁目 サブナード地下街１丁目","35.693445","139.7021138"
"ドトールコーヒーショップ 岩本町２丁目店","東京都千代田区岩本町２‐８ 井桁ビル１Ｆ","35.6924406","139.7763305"
"ドトールコーヒーショップ 東中野店","東京都中野区東中野３‐８‐２","35.7068352","139.682737"
"ドトールコーヒーショップ 新川永代通り店","東京都中央区新川１‐２‐１０ 新川武蔵屋ビル１Ｆ","35.6789082","139.7825105"
"ドトールコーヒーショップ 三田３丁目店","東京都港区三田３‐４‐１１","35.6471081","139.7440613"
"ドトールコーヒーショップ 東武浅草北口店","東京都台東区花川戸１‐１０‐２","35.712813","139.7994191"
"ドトールコーヒーショップ 銀座４丁目店","東京都中央区銀座４‐１１‐６ 銀座島倉ビル","35.6698689","139.7687023"
"ドトールコーヒーショップ 新川１丁目店","東京都中央区新川１‐４‐１１","35.6775166","139.7805801"
"ドトールコーヒーショップ 小伝馬町店","東京都中央区日本橋小伝馬町１５‐１６","35.6920093","139.7800769"
"ドトールコーヒーショップ 神田松永町店","東京都千代田区神田松永町１８‐１ ビオレ秋葉原１Ｆ","35.7005888","139.7752879"
"ドトールコーヒーショップ 赤坂２丁目店","東京都港区赤坂２‐１１‐１５","35.6704413","139.7410276"
"ドトールコーヒーショップ サンシャインシティアルパ店","東京都豊島区東池袋３‐１ サンシャインシティ・アルパＢ１Ｆ","35.728955","139.71933"
"ドトールコーヒーショップ 豊田店","東京都日野市多摩平１‐２‐１","35.660394","139.3806835"
"ドトールコーヒーショップ 中目黒店","東京都目黒区上目黒３‐３‐２","35.6445209","139.6985294"
"ドトールコーヒーショップ 調布北口店","東京都調布市小島町１‐１２‐７ 小笠原ビル１Ｆ","35.6535946","139.5431353"
"ドトールコーヒーショップ 恵比寿東店","東京都渋谷区東３‐２５‐５ グランドメゾン恵比寿東","35.6486","139.7102249"
"ドトールコーヒーショップ 東池袋１丁目店","東京都豊島区東池袋１‐１７‐３ ウェルシャン池袋１Ｆ","35.7318611","139.714873"
"ドトールコーヒーショップ 外神田１丁目店","東京都千代田区外神田１‐６‐６","35.6995442","139.769494"
"ドトールコーヒーショップ 大手町ファーストスクエア店","東京都千代田区大手町１‐５‐１ 大手町ファーストスクエアビルＢ１Ｆ","35.6858142","139.7644864"
"ドトールコーヒーショップ 代々木店","東京都渋谷区代々木１‐３６‐７ 代々木駅前ビル１Ｆ","35.6836501","139.7013884"
"ドトールコーヒーショップ 日本橋小舟町店","東京都中央区日本橋小舟町１１‐８","35.6875459","139.7784466"
"ドトールコーヒーショップ 曙橋店","東京都新宿区住吉町７‐１ 福松ビル１Ｆ","35.6925852","139.7232326"
"ドトールコーヒーショップ 渋谷３丁目北店","東京都渋谷区渋谷３‐６‐２ エクラート渋谷ビル","35.6579154","139.7049787"
"ドトールコーヒーショップ 神田淡路町店","東京都千代田区神田須田町１‐２‐１ カルフール神田","35.6951557","139.767624"
"ドトールコーヒーショップ ひばりヶ丘南口店","東京都西東京市住吉町３‐９‐８","35.75101009999999","139.5455296"
"ドトールコーヒーショップ 蒲田東口店","東京都大田区蒲田５‐１１‐１０","35.5630982","139.7169787"
"ドトールコーヒーショップ 浜松町１丁目店","東京都港区浜松町１‐２９‐９ ＦＡ小林ビル","35.6568659","139.7556846"
"ドトールコーヒーショップ 武蔵小山店","東京都品川区小山３‐２２‐１７","35.6190047","139.7055434"
"ドトールコーヒーショップ 田町センタービル店","東京都港区芝５‐３４‐７ 田町センタービル","35.6462308","139.7469212"
"ドトールコーヒーショップ 成城学園北口店","東京都世田谷区成城６‐９‐１ 五和ビル１Ｆ","35.640476","139.5984207"
"ドトールコーヒーショップ 尾山台店","東京都世田谷区尾山台３‐３４‐８","35.60692969999999","139.6532791"
"ドトールコーヒーショップ 築地聖路加通り店","東京都中央区築地３‐７‐１ 築地吉本ビル","35.6679528","139.7736346"
"ドトールコーヒーショップ 市ヶ谷駅前店","東京都千代田区九段南４‐８‐２７ 重盛ビル","35.6914213","139.7378398"
"ドトールコーヒーショップ 学芸大学店","東京都目黒区鷹番２‐１６‐１８","35.6288863","139.6871309"
"ドトールコーヒーショップ 台東４丁目店","東京都台東区台東４‐２８‐８ 跡部ビル１Ｆ","35.7071076","139.7794625"
"ドトールコーヒーショップ 西池袋１丁目メトロポリタン通り店","東京都豊島区西池袋１‐９‐１１ カーサ池袋１Ｆ","35.728962","139.7087288"
"ドトールコーヒーショップ 新宿アイランド店","東京都新宿区西新宿６‐４‐１ 新宿アイランドアトリウム１Ｆ","35.6938971","139.6931715"
"ドトールコーヒーショップ 吉祥寺元町通り店","東京都武蔵野市吉祥寺本町１‐８‐１０ 元町八番館ビル","35.7048796","139.5784439"
"ドトールコーヒーショップ 原宿竹下口店","東京都渋谷区神宮前１‐１７‐１ ルポンテビル１Ｆ","35.6714095","139.7032234"
"ドトールコーヒーショップ サンライズ蒲田店","東京都大田区西蒲田７‐６２‐４","35.5621539","139.7129903"
"ドトールコーヒーショップ 田原町駅前店","東京都台東区西浅草１‐１‐１６ カーサ田原町","35.7103969","139.7912904"
"ドトールコーヒーショップ 日暮里駅前店","東京都荒川区西日暮里２‐１９‐７ 東忠ビル１Ｆ","35.728196","139.7715653"
"ドトールコーヒーショップ 原宿店","東京都渋谷区神宮前１‐１３‐１８ 第２大英ビル","35.6697198","139.7034129"
"ドトールコーヒーショップ 新高円寺店","東京都杉並区梅里２‐１‐１７","35.69754930000001","139.6476843"
"ドトールコーヒーショップ 新宿２丁目店","東京都新宿区新宿２‐５‐８ 志村ビル１Ｆ","35.6897105","139.7069036"
"ドトールコーヒーショップ 町田駅前店","東京都町田市原町田６‐１１‐１０ 第一柿島ビル","35.5444359","139.4461437"
"ドトールコーヒーショップ あきる野とうきゅう店","東京都あきる野市秋川１‐１７‐１","35.7307363","139.2873257"
"ドトールコーヒーショップ 秋葉原和泉橋店","東京都千代田区神田岩本町１ 山上ビル","35.6962798","139.7751145"
"ドトールコーヒーショップ 福生駅東口店","東京都福生市東町４‐１２","35.7425","139.3279431"
"ドトールコーヒーショップ 荻窪北口大通り店","東京都杉並区上荻１‐１６‐１７","35.7054483","139.6194698"
"ドトールコーヒーショップ 京王府中店","東京都府中市府中町１‐３‐６ 京王府中ショッピングセンター内","35.6720466","139.4809528"
"ドトールコーヒーショップ 洗足駅前店","東京都目黒区洗足２‐２１‐１","35.6103027","139.6943169"
"ドトールコーヒーショップ 中板橋北口店","東京都板橋区中板橋２３‐２","35.7558359","139.6957947"
"ドトールコーヒーショップ 門前仲町２丁目店","東京都江東区門前仲町２‐４‐１２","35.6721953","139.7958428"
"ドトールコーヒーショップ 鴬谷北口店","東京都台東区根岸１‐９‐９","35.7228837","139.7777507"
"ドトールコーヒーショップ 入谷駅前店","東京都台東区下谷２‐１‐１０","35.7202759","139.783856"
"ドトールコーヒーショップ 新宿３丁目東店","東京都新宿区新宿３‐１１‐９ 花菱ビル１Ｆ","35.6919092","139.7065545"
"ドトールコーヒーショップ 中野坂上店","東京都中野区本町２‐４６‐１","35.6967252","139.6821014"
"ドトールコーヒーショップ 西新橋３丁目店","東京都港区西新橋３‐８‐１ 第二鈴丸ビル１Ｆ","35.664618","139.7526502"
"ドトールコーヒーショップ リエッタ綾瀬店","東京都足立区綾瀬３-１-１０","35.7606609","139.8223671"
"ドトールコーヒーショップ 神田西口店","東京都千代田区内神田１‐１７ 小堀ビル１Ｆ","35.69146080000001","139.7666157"
"ドトールコーヒーショップ 南青山店","東京都港区南青山５‐９‐２０","35.6633551","139.7111749"
"ドトールコーヒーショップ 西新宿１丁目店","東京都新宿区西新宿１‐１３‐８ 朝日新宿ビル","35.6895336","139.6965701"
"ドトールコーヒーショップ 渋谷１丁目店","東京都渋谷区渋谷１‐１４‐１５","35.6601219","139.7025952"
"ドトールコーヒーショップ 神保町２丁目店","東京都千代田区神田神保町２‐１７ 神田神保町ビル","35.6950747","139.7579348"
"ドトールコーヒーショップ 築地２丁目店","東京都中央区築地２‐１２‐８","35.6679897","139.7720337"
"ドトールコーヒーショップ 東陽町店","東京都江東区東陽４‐５‐１８ メトロハイツ東陽","35.6703347","139.8183035"
"ドトールコーヒーショップ 水道橋東口店","東京都千代田区三崎町２‐１‐１６ プラージュビル１Ｆ","35.7000908","139.7557503"
"ドトールコーヒーショップ 新宿南口店","東京都渋谷区代々木２‐１０‐１ 新宿サンセイビル１Ｆ","35.6880956","139.6983568"
"ドトールコーヒーショップ 八丁堀店","東京都中央区八丁堀２-２６-１５","35.6751195","139.7753361"
"ドトールコーヒーショップ 神保町３丁目店","東京都千代田区神田神保町３‐２","35.696158","139.7544284"
"ドトールコーヒーショップ 新橋銀座口店","東京都港区新橋１‐８‐４ 丸忠ビル１Ｆ","35.6669732","139.7604261"
"ドトールコーヒーショップ 日本橋本町店","東京都中央区日本橋本町２‐３‐１５","35.6875958","139.7756051"
"ドトールコーヒーショップ 四谷３丁目店","東京都新宿区四谷３‐９","35.6877052","139.7199423"
"ドトールコーヒーショップ 京成立石店","東京都葛飾区立石４‐２５‐８ 近江ビル","35.7387151","139.8491305"
"ドトールコーヒーショップ 錦糸町店","東京都墨田区江東橋４‐２７‐１４ 楽天地ビル１Ｆ","35.6964931","139.8157855"
"ドトールコーヒーショップ 神谷町店","東京都港区虎ノ門４‐１‐１０ 青木ビル１Ｆ","35.6643498","139.7448254"
"ドトールコーヒーショップ 大森店","東京都大田区大森北１‐５‐５","35.5873703","139.7282402"
"ドトールコーヒーショップ 人形町３丁目店","東京都中央区日本橋人形町３‐３‐１０ 日本橋ＴＥＣビル","35.6857837","139.7808441"
"ドトールコーヒーショップ 御徒町南口店","東京都台東区上野５‐２０‐６","35.7089183","139.7742183"
"ドトールコーヒーショップ 新宿サブナード店","東京都新宿区歌舞伎町１丁目 サブナード地下街１丁目","35.693445","139.7021138"
"ドトールコーヒーショップ 岩本町２丁目店","東京都千代田区岩本町２‐８ 井桁ビル１Ｆ","35.6924406","139.7763305"
"ドトールコーヒーショップ 東中野店","東京都中野区東中野３‐８‐２","35.7068352","139.682737"
"ドトールコーヒーショップ 新川永代通り店","東京都中央区新川１‐２‐１０ 新川武蔵屋ビル１Ｆ","35.6789082","139.7825105"
"ドトールコーヒーショップ 三田３丁目店","東京都港区三田３‐４‐１１","35.6471081","139.7440613"
"ドトールコーヒーショップ 東武浅草北口店","東京都台東区花川戸１‐１０‐２","35.712813","139.7994191"
"ドトールコーヒーショップ 銀座４丁目店","東京都中央区銀座４‐１１‐６ 銀座島倉ビル","35.6698689","139.7687023"
"ドトールコーヒーショップ 新川１丁目店","東京都中央区新川１‐４‐１１","35.6775166","139.7805801"
"ドトールコーヒーショップ 小伝馬町店","東京都中央区日本橋小伝馬町１５‐１６","35.6920093","139.7800769"
"ドトールコーヒーショップ 神田松永町店","東京都千代田区神田松永町１８‐１ ビオレ秋葉原１Ｆ","35.7005888","139.7752879"
"ドトールコーヒーショップ 赤坂２丁目店","東京都港区赤坂２‐１１‐１５","35.6704413","139.7410276"
"ドトールコーヒーショップ サンシャインシティアルパ店","東京都豊島区東池袋３‐１ サンシャインシティ・アルパＢ１Ｆ","35.728955","139.71933"
"ドトールコーヒーショップ 豊田店","東京都日野市多摩平１‐２‐１","35.660394","139.3806835"
"ドトールコーヒーショップ 中目黒店","東京都目黒区上目黒３‐３‐２","35.6445209","139.6985294"
"ドトールコーヒーショップ 調布北口店","東京都調布市小島町１‐１２‐７ 小笠原ビル１Ｆ","35.6535946","139.5431353"
"ドトールコーヒーショップ 恵比寿東店","東京都渋谷区東３‐２５‐５ グランドメゾン恵比寿東","35.6486","139.7102249"
"ドトールコーヒーショップ 東池袋１丁目店","東京都豊島区東池袋１‐１７‐３ ウェルシャン池袋１Ｆ","35.7318611","139.714873"
"ドトールコーヒーショップ 外神田１丁目店","東京都千代田区外神田１‐６‐６","35.6995442","139.769494"
"ドトールコーヒーショップ 大手町ファーストスクエア店","東京都千代田区大手町１‐５‐１ 大手町ファーストスクエアビルＢ１Ｆ","35.6858142","139.7644864"
"ドトールコーヒーショップ 代々木店","東京都渋谷区代々木１‐３６‐７ 代々木駅前ビル１Ｆ","35.6836501","139.7013884"
"ドトールコーヒーショップ 日本橋小舟町店","東京都中央区日本橋小舟町１１‐８","35.6875459","139.7784466"
"ドトールコーヒーショップ 曙橋店","東京都新宿区住吉町７‐１ 福松ビル１Ｆ","35.6925852","139.7232326"
"ドトールコーヒーショップ 渋谷３丁目北店","東京都渋谷区渋谷３‐６‐２ エクラート渋谷ビル","35.6579154","139.7049787"
"ドトールコーヒーショップ 神田淡路町店","東京都千代田区神田須田町１‐２‐１ カルフール神田","35.6951557","139.767624"
"ドトールコーヒーショップ ひばりヶ丘南口店","東京都西東京市住吉町３‐９‐８","35.75101009999999","139.5455296"
"ドトールコーヒーショップ 蒲田東口店","東京都大田区蒲田５‐１１‐１０","35.5630982","139.7169787"
"ドトールコーヒーショップ 浜松町１丁目店","東京都港区浜松町１‐２９‐９ ＦＡ小林ビル","35.6568659","139.7556846"
"ドトールコーヒーショップ 武蔵小山店","東京都品川区小山３‐２２‐１７","35.6190047","139.7055434"
"ドトールコーヒーショップ 田町センタービル店","東京都港区芝５‐３４‐７ 田町センタービル","35.6462308","139.7469212"
"ドトールコーヒーショップ 成城学園北口店","東京都世田谷区成城６‐９‐１ 五和ビル１Ｆ","35.640476","139.5984207"
"ドトールコーヒーショップ 尾山台店","東京都世田谷区尾山台３‐３４‐８","35.60692969999999","139.6532791"
"ドトールコーヒーショップ 築地聖路加通り店","東京都中央区築地３‐７‐１ 築地吉本ビル","35.6679528","139.7736346"
"ドトールコーヒーショップ 市ヶ谷駅前店","東京都千代田区九段南４‐８‐２７ 重盛ビル","35.6914213","139.7378398"
"ドトールコーヒーショップ 学芸大学店","東京都目黒区鷹番２‐１６‐１８","35.6288863","139.6871309"
"ドトールコーヒーショップ 台東４丁目店","東京都台東区台東４‐２８‐８ 跡部ビル１Ｆ","35.7071076","139.7794625"
"ドトールコーヒーショップ 西池袋１丁目メトロポリタン通り店","東京都豊島区西池袋１‐９‐１１ カーサ池袋１Ｆ","35.728962","139.7087288"
"ドトールコーヒーショップ 新宿アイランド店","東京都新宿区西新宿６‐４‐１ 新宿アイランドアトリウム１Ｆ","35.6938971","139.6931715"
"ドトールコーヒーショップ 吉祥寺元町通り店","東京都武蔵野市吉祥寺本町１‐８‐１０ 元町八番館ビル","35.7048796","139.5784439"
"ドトールコーヒーショップ 原宿竹下口店","東京都渋谷区神宮前１‐１７‐１ ルポンテビル１Ｆ","35.6714095","139.7032234"
"ドトールコーヒーショップ サンライズ蒲田店","東京都大田区西蒲田７‐６２‐４","35.5621539","139.7129903"
"ドトールコーヒーショップ 田原町駅前店","東京都台東区西浅草１‐１‐１６ カーサ田原町","35.7103969","139.7912904"
"ドトールコーヒーショップ 日暮里駅前店","東京都荒川区西日暮里２‐１９‐７ 東忠ビル１Ｆ","35.728196","139.7715653"
"ドトールコーヒーショップ 原宿店","東京都渋谷区神宮前１‐１３‐１８ 第２大英ビル","35.6697198","139.7034129"
"ドトールコーヒーショップ 新高円寺店","東京都杉並区梅里２‐１‐１７","35.69754930000001","139.6476843"
"ドトールコーヒーショップ 新宿２丁目店","東京都新宿区新宿２‐５‐８ 志村ビル１Ｆ","35.6897105","139.7069036"
"ドトールコーヒーショップ 町田駅前店","東京都町田市原町田６‐１１‐１０ 第一柿島ビル","35.5444359","139.4461437"
"ドトールコーヒーショップ あきる野とうきゅう店","東京都あきる野市秋川１‐１７‐１","35.7307363","139.2873257"
"ドトールコーヒーショップ 秋葉原和泉橋店","東京都千代田区神田岩本町１ 山上ビル","35.6962798","139.7751145"
"ドトールコーヒーショップ 福生駅東口店","東京都福生市東町４‐１２","35.7425","139.3279431"
"ドトールコーヒーショップ 荻窪北口大通り店","東京都杉並区上荻１‐１６‐１７","35.7054483","139.6194698"
"ドトールコーヒーショップ 京王府中店","東京都府中市府中町１‐３‐６ 京王府中ショッピングセンター内","35.6720466","139.4809528"
"ドトールコーヒーショップ 洗足駅前店","東京都目黒区洗足２‐２１‐１","35.6103027","139.6943169"
"ドトールコーヒーショップ 中板橋北口店","東京都板橋区中板橋２３‐２","35.7558359","139.6957947"
"ドトールコーヒーショップ 門前仲町２丁目店","東京都江東区門前仲町２‐４‐１２","35.6721953","139.7958428"
"ドトールコーヒーショップ 鴬谷北口店","東京都台東区根岸１‐９‐９","35.7228837","139.7777507"
"ドトールコーヒーショップ 入谷駅前店","東京都台東区下谷２‐１‐１０","35.7202759","139.783856"
"ドトールコーヒーショップ 新宿３丁目東店","東京都新宿区新宿３‐１１‐９ 花菱ビル１Ｆ","35.6919092","139.7065545"
"ドトールコーヒーショップ 中野坂上店","東京都中野区本町２‐４６‐１","35.6967252","139.6821014"
"ドトールコーヒーショップ 西新橋３丁目店","東京都港区西新橋３‐８‐１ 第二鈴丸ビル１Ｆ","35.664618","139.7526502"
"ドトールコーヒーショップ リエッタ綾瀬店","東京都足立区綾瀬３-１-１０","35.7606609","139.8223671"
"ドトールコーヒーショップ 市ヶ谷プラザ店","東京都千代田区九段北４‐２‐１５","35.6915442","139.7367381"
"ドトールコーヒーショップ 錦糸町楽天地ビル地下店","東京都墨田区江東橋４‐２７‐１４","35.6964979","139.815807"
"ドトールコーヒーショップ グリナード永山店","東京都多摩市永山１‐４ グリナード永山１０２","35.6291256","139.4483211"
"ドトールコーヒーショップ 御嶽山店","東京都大田区北嶺町３２‐１３","35.5855364","139.681631"
"ドトールコーヒーショップ 町田幸町通り店","東京都町田市原町田６‐２１‐２８","35.543337","139.4478929"
"ドトールコーヒーショップ 喜多見店","東京都世田谷区喜多見８‐１８‐１１","35.6363335","139.588109"
"ドトールコーヒーショップ 錦糸町北口店","東京都墨田区錦糸３‐２‐１ アルカイースト１Ｆ","35.6974959","139.8143467"
"ドトールコーヒーショップ 高尾駅前店","東京都八王子市初沢町１２３１‐１６ 京王クラウン街高尾","35.6420006","139.2832539"
"ドトールコーヒーショップ 神田東口店","東京都千代田区鍛冶町２‐７‐３ 国際ビル","35.692454","139.771821"
"ドトールコーヒーショップ 東武北千住駅店","東京都足立区千住旭町４２","35.748468","139.8048222"
"ドトールコーヒーショップ 新大手町ビル店","東京都千代田区大手町２‐２‐１","35.6852764","139.7670557"
"ドトールコーヒーショップ 新宿文化センター通り店","東京都新宿区新宿５‐１８‐１０","35.6947401","139.7060518"
"ドトールコーヒーショップ 新木場メトロピア店","東京都江東区新木場１‐６先","35.6458625","139.8264346"
"ドトールコーヒーショップ 学芸大学駅前店","東京都目黒区鷹番３‐６‐１","35.6290612","139.6851533"
"ドトールコーヒーショップ 半蔵門店","東京都千代田区麹町１‐８‐８ グランドメゾン麹町１Ｆ","35.6854111","139.7418514"
"ドトールコーヒーショップ 森下店","東京都江東区森下１‐１２‐９","35.6875962","139.7980728"
"ドトールコーヒーショップ 府中フォーリス店","東京都府中市宮町１‐４１‐１","35.6706622","139.4794473"
"ドトールコーヒーショップ 京王多摩センター店","東京都多摩市落合１‐１０‐１ 京王多摩センターＳＣ","35.6253446","139.4242797"
"ドトールコーヒーショップ 代々木八幡店","東京都渋谷区富ヶ谷１‐５２‐１","35.6690232","139.6888795"
"ドトールコーヒーショップ 大塚南口店","東京都豊島区南大塚３‐５３‐５","35.7305482","139.7284983"
"ドトールコーヒーショップ 神田西口店","東京都千代田区内神田１‐１７ 小堀ビル１Ｆ","35.69146080000001","139.7666157"
"ドトールコーヒーショップ 南青山店","東京都港区南青山５‐９‐２０","35.6633551","139.7111749"
"ドトールコーヒーショップ 西新宿１丁目店","東京都新宿区西新宿１‐１３‐８ 朝日新宿ビル","35.6895336","139.6965701"
"ドトールコーヒーショップ 渋谷１丁目店","東京都渋谷区渋谷１‐１４‐１５","35.6601219","139.7025952"
"ドトールコーヒーショップ 神保町２丁目店","東京都千代田区神田神保町２‐１７ 神田神保町ビル","35.6950747","139.7579348"
"ドトールコーヒーショップ 築地２丁目店","東京都中央区築地２‐１２‐８","35.6679897","139.7720337"
"ドトールコーヒーショップ 東陽町店","東京都江東区東陽４‐５‐１８ メトロハイツ東陽","35.6703347","139.8183035"
"ドトールコーヒーショップ 水道橋東口店","東京都千代田区三崎町２‐１‐１６ プラージュビル１Ｆ","35.7000908","139.7557503"
"ドトールコーヒーショップ 新宿南口店","東京都渋谷区代々木２‐１０‐１ 新宿サンセイビル１Ｆ","35.6880956","139.6983568"
"ドトールコーヒーショップ 八丁堀店","東京都中央区八丁堀２-２６-１５","35.6751195","139.7753361"
"ドトールコーヒーショップ 神保町３丁目店","東京都千代田区神田神保町３‐２","35.696158","139.7544284"
"ドトールコーヒーショップ 新橋銀座口店","東京都港区新橋１‐８‐４ 丸忠ビル１Ｆ","35.6669732","139.7604261"
"ドトールコーヒーショップ 日本橋本町店","東京都中央区日本橋本町２‐３‐１５","35.6875958","139.7756051"
"ドトールコーヒーショップ 四谷３丁目店","東京都新宿区四谷３‐９","35.6877052","139.7199423"
"ドトールコーヒーショップ 京成立石店","東京都葛飾区立石４‐２５‐８ 近江ビル","35.7387151","139.8491305"
"ドトールコーヒーショップ 錦糸町店","東京都墨田区江東橋４‐２７‐１４ 楽天地ビル１Ｆ","35.6964931","139.8157855"
"ドトールコーヒーショップ 神谷町店","東京都港区虎ノ門４‐１‐１０ 青木ビル１Ｆ","35.6643498","139.7448254"
"ドトールコーヒーショップ 大森店","東京都大田区大森北１‐５‐５","35.5873703","139.7282402"
"ドトールコーヒーショップ 人形町３丁目店","東京都中央区日本橋人形町３‐３‐１０ 日本橋ＴＥＣビル","35.6857837","139.7808441"
"ドトールコーヒーショップ 御徒町南口店","東京都台東区上野５‐２０‐６","35.7089183","139.7742183"
"ドトールコーヒーショップ 新宿サブナード店","東京都新宿区歌舞伎町１丁目 サブナード地下街１丁目","35.693445","139.7021138"
"ドトールコーヒーショップ 岩本町２丁目店","東京都千代田区岩本町２‐８ 井桁ビル１Ｆ","35.6924406","139.7763305"
"ドトールコーヒーショップ 東中野店","東京都中野区東中野３‐８‐２","35.7068352","139.682737"
"ドトールコーヒーショップ 新川永代通り店","東京都中央区新川１‐２‐１０ 新川武蔵屋ビル１Ｆ","35.6789082","139.7825105"
"ドトールコーヒーショップ 三田３丁目店","東京都港区三田３‐４‐１１","35.6471081","139.7440613"
"ドトールコーヒーショップ 東武浅草北口店","東京都台東区花川戸１‐１０‐２","35.712813","139.7994191"
"ドトールコーヒーショップ 銀座４丁目店","東京都中央区銀座４‐１１‐６ 銀座島倉ビル","35.6698689","139.7687023"
"ドトールコーヒーショップ 新川１丁目店","東京都中央区新川１‐４‐１１","35.6775166","139.7805801"
"ドトールコーヒーショップ 小伝馬町店","東京都中央区日本橋小伝馬町１５‐１６","35.6920093","139.7800769"
"ドトールコーヒーショップ 神田松永町店","東京都千代田区神田松永町１８‐１ ビオレ秋葉原１Ｆ","35.7005888","139.7752879"
"ドトールコーヒーショップ 赤坂２丁目店","東京都港区赤坂２‐１１‐１５","35.6704413","139.7410276"
"ドトールコーヒーショップ サンシャインシティアルパ店","東京都豊島区東池袋３‐１ サンシャインシティ・アルパＢ１Ｆ","35.728955","139.71933"
"ドトールコーヒーショップ 豊田店","東京都日野市多摩平１‐２‐１","35.660394","139.3806835"
"ドトールコーヒーショップ 中目黒店","東京都目黒区上目黒３‐３‐２","35.6445209","139.6985294"
"ドトールコーヒーショップ 調布北口店","東京都調布市小島町１‐１２‐７ 小笠原ビル１Ｆ","35.6535946","139.5431353"
"ドトールコーヒーショップ 恵比寿東店","東京都渋谷区東３‐２５‐５ グランドメゾン恵比寿東","35.6486","139.7102249"
"ドトールコーヒーショップ 東池袋１丁目店","東京都豊島区東池袋１‐１７‐３ ウェルシャン池袋１Ｆ","35.7318611","139.714873"
"ドトールコーヒーショップ 外神田１丁目店","東京都千代田区外神田１‐６‐６","35.6995442","139.769494"
"ドトールコーヒーショップ 大手町ファーストスクエア店","東京都千代田区大手町１‐５‐１ 大手町ファーストスクエアビルＢ１Ｆ","35.6858142","139.7644864"
"ドトールコーヒーショップ 代々木店","東京都渋谷区代々木１‐３６‐７ 代々木駅前ビル１Ｆ","35.6836501","139.7013884"
"ドトールコーヒーショップ 日本橋小舟町店","東京都中央区日本橋小舟町１１‐８","35.6875459","139.7784466"
"ドトールコーヒーショップ 曙橋店","東京都新宿区住吉町７‐１ 福松ビル１Ｆ","35.6925852","139.7232326"
"ドトールコーヒーショップ 渋谷３丁目北店","東京都渋谷区渋谷３‐６‐２ エクラート渋谷ビル","35.6579154","139.7049787"
"ドトールコーヒーショップ 神田淡路町店","東京都千代田区神田須田町１‐２‐１ カルフール神田","35.6951557","139.767624"
"ドトールコーヒーショップ ひばりヶ丘南口店","東京都西東京市住吉町３‐９‐８","35.75101009999999","139.5455296"
"ドトールコーヒーショップ 蒲田東口店","東京都大田区蒲田５‐１１‐１０","35.5630982","139.7169787"
"ドトールコーヒーショップ 浜松町１丁目店","東京都港区浜松町１‐２９‐９ ＦＡ小林ビル","35.6568659","139.7556846"
"ドトールコーヒーショップ 武蔵小山店","東京都品川区小山３‐２２‐１７","35.6190047","139.7055434"
"ドトールコーヒーショップ 田町センタービル店","東京都港区芝５‐３４‐７ 田町センタービル","35.6462308","139.7469212"
"ドトールコーヒーショップ 成城学園北口店","東京都世田谷区成城６‐９‐１ 五和ビル１Ｆ","35.640476","139.5984207"
"ドトールコーヒーショップ 尾山台店","東京都世田谷区尾山台３‐３４‐８","35.60692969999999","139.6532791"
"ドトールコーヒーショップ 築地聖路加通り店","東京都中央区築地３‐７‐１ 築地吉本ビル","35.6679528","139.7736346"
"ドトールコーヒーショップ 市ヶ谷駅前店","東京都千代田区九段南４‐８‐２７ 重盛ビル","35.6914213","139.7378398"
"ドトールコーヒーショップ 学芸大学店","東京都目黒区鷹番２‐１６‐１８","35.6288863","139.6871309"
"ドトールコーヒーショップ 台東４丁目店","東京都台東区台東４‐２８‐８ 跡部ビル１Ｆ","35.7071076","139.7794625"
"ドトールコーヒーショップ 西池袋１丁目メトロポリタン通り店","東京都豊島区西池袋１‐９‐１１ カーサ池袋１Ｆ","35.728962","139.7087288"
"ドトールコーヒーショップ 新宿アイランド店","東京都新宿区西新宿６‐４‐１ 新宿アイランドアトリウム１Ｆ","35.6938971","139.6931715"
"ドトールコーヒーショップ 吉祥寺元町通り店","東京都武蔵野市吉祥寺本町１‐８‐１０ 元町八番館ビル","35.7048796","139.5784439"
"ドトールコーヒーショップ 原宿竹下口店","東京都渋谷区神宮前１‐１７‐１ ルポンテビル１Ｆ","35.6714095","139.7032234"
"ドトールコーヒーショップ サンライズ蒲田店","東京都大田区西蒲田７‐６２‐４","35.5621539","139.7129903"
"ドトールコーヒーショップ 田原町駅前店","東京都台東区西浅草１‐１‐１６ カーサ田原町","35.7103969","139.7912904"
"ドトールコーヒーショップ 日暮里駅前店","東京都荒川区西日暮里２‐１９‐７ 東忠ビル１Ｆ","35.728196","139.7715653"
"ドトールコーヒーショップ 原宿店","東京都渋谷区神宮前１‐１３‐１８ 第２大英ビル","35.6697198","139.7034129"
"ドトールコーヒーショップ 新高円寺店","東京都杉並区梅里２‐１‐１７","35.69754930000001","139.6476843"
"ドトールコーヒーショップ 新宿２丁目店","東京都新宿区新宿２‐５‐８ 志村ビル１Ｆ","35.6897105","139.7069036"
"ドトールコーヒーショップ 町田駅前店","東京都町田市原町田６‐１１‐１０ 第一柿島ビル","35.5444359","139.4461437"
"ドトールコーヒーショップ あきる野とうきゅう店","東京都あきる野市秋川１‐１７‐１","35.7307363","139.2873257"
"ドトールコーヒーショップ 秋葉原和泉橋店","東京都千代田区神田岩本町１ 山上ビル","35.6962798","139.7751145"
"ドトールコーヒーショップ 福生駅東口店","東京都福生市東町４‐１２","35.7425","139.3279431"
"ドトールコーヒーショップ 荻窪北口大通り店","東京都杉並区上荻１‐１６‐１７","35.7054483","139.6194698"
"ドトールコーヒーショップ 京王府中店","東京都府中市府中町１‐３‐６ 京王府中ショッピングセンター内","35.6720466","139.4809528"
"ドトールコーヒーショップ 洗足駅前店","東京都目黒区洗足２‐２１‐１","35.6103027","139.6943169"
"ドトールコーヒーショップ 中板橋北口店","東京都板橋区中板橋２３‐２","35.7558359","139.6957947"
"ドトールコーヒーショップ 門前仲町２丁目店","東京都江東区門前仲町２‐４‐１２","35.6721953","139.7958428"
"ドトールコーヒーショップ 鴬谷北口店","東京都台東区根岸１‐９‐９","35.7228837","139.7777507"
"ドトールコーヒーショップ 入谷駅前店","東京都台東区下谷２‐１‐１０","35.7202759","139.783856"
"ドトールコーヒーショップ 新宿３丁目東店","東京都新宿区新宿３‐１１‐９ 花菱ビル１Ｆ","35.6919092","139.7065545"
"ドトールコーヒーショップ 中野坂上店","東京都中野区本町２‐４６‐１","35.6967252","139.6821014"
"ドトールコーヒーショップ 西新橋３丁目店","東京都港区西新橋３‐８‐１ 第二鈴丸ビル１Ｆ","35.664618","139.7526502"
"ドトールコーヒーショップ リエッタ綾瀬店","東京都足立区綾瀬３-１-１０","35.7606609","139.8223671"
"ドトールコーヒーショップ 市ヶ谷プラザ店","東京都千代田区九段北４‐２‐１５","35.6915442","139.7367381"
"ドトールコーヒーショップ 錦糸町楽天地ビル地下店","東京都墨田区江東橋４‐２７‐１４","35.6964979","139.815807"
"ドトールコーヒーショップ グリナード永山店","東京都多摩市永山１‐４ グリナード永山１０２","35.6291256","139.4483211"
"ドトールコーヒーショップ 御嶽山店","東京都大田区北嶺町３２‐１３","35.5855364","139.681631"
"ドトールコーヒーショップ 町田幸町通り店","東京都町田市原町田６‐２１‐２８","35.543337","139.4478929"
"ドトールコーヒーショップ 喜多見店","東京都世田谷区喜多見８‐１８‐１１","35.6363335","139.588109"
"ドトールコーヒーショップ 錦糸町北口店","東京都墨田区錦糸３‐２‐１ アルカイースト１Ｆ","35.6974959","139.8143467"
"ドトールコーヒーショップ 高尾駅前店","東京都八王子市初沢町１２３１‐１６ 京王クラウン街高尾","35.6420006","139.2832539"
"ドトールコーヒーショップ 神田東口店","東京都千代田区鍛冶町２‐７‐３ 国際ビル","35.692454","139.771821"
"ドトールコーヒーショップ 東武北千住駅店","東京都足立区千住旭町４２","35.748468","139.8048222"
"ドトールコーヒーショップ 新大手町ビル店","東京都千代田区大手町２‐２‐１","35.6852764","139.7670557"
"ドトールコーヒーショップ 新宿文化センター通り店","東京都新宿区新宿５‐１８‐１０","35.6947401","139.7060518"
"ドトールコーヒーショップ 新木場メトロピア店","東京都江東区新木場１‐６先","35.6458625","139.8264346"
"ドトールコーヒーショップ 学芸大学駅前店","東京都目黒区鷹番３‐６‐１","35.6290612","139.6851533"
"ドトールコーヒーショップ 半蔵門店","東京都千代田区麹町１‐８‐８ グランドメゾン麹町１Ｆ","35.6854111","139.7418514"
"ドトールコーヒーショップ 森下店","東京都江東区森下１‐１２‐９","35.6875962","139.7980728"
"ドトールコーヒーショップ 府中フォーリス店","東京都府中市宮町１‐４１‐１","35.6706622","139.4794473"
"ドトールコーヒーショップ 京王多摩センター店","東京都多摩市落合１‐１０‐１ 京王多摩センターＳＣ","35.6253446","139.4242797"
"ドトールコーヒーショップ 代々木八幡店","東京都渋谷区富ヶ谷１‐５２‐１","35.6690232","139.6888795"
"ドトールコーヒーショップ 大塚南口店","東京都豊島区南大塚３‐５３‐５","35.7305482","139.7284983"
"ドトールコーヒーショップ 新宿１丁目南店","東京都新宿区新宿１‐２０‐４","35.6890993","139.7122625"
"ドトールコーヒーショップ 駒込東口店","東京都北区中里１‐６‐１ 中里鈴木ビル","35.7369475","139.7495361"
"ドトールコーヒーショップ 豊洲メトロピア店","東京都江東区豊洲４‐１‐１","35.6546026","139.7970404"
"ドトールコーヒーショップ 武蔵小金井店","東京都小金井市本町５‐１２‐１４","35.7019648","139.5060829"
"ドトールコーヒーショップ 西葛西北口店","東京都江戸川区西葛西３‐１６‐１２","35.6656695","139.8588173"
"ドトールコーヒーショップ 駒込南口店","東京都文京区本駒込６‐１５‐１","35.7349395","139.7470554"
"ドトールコーヒーショップ 荻窪南口店","東京都杉並区荻窪５‐２９‐７","35.703693","139.6211502"
"ドトールコーヒーショップ 旗の台中原街道店","東京都品川区旗の台１‐４‐１３","35.6074255","139.7038689"
"ドトールコーヒーショップ 飯田橋富士見店","東京都千代田区富士見２‐３‐１０","35.6994018","139.7448705"
"ドトールコーヒーショップ 明大前店","東京都世田谷区松原２‐４６‐２ プリマベーラ春山１Ｆ","35.6687952","139.6500515"
"ドトールコーヒーショップ 日本橋２丁目西店","東京都中央区日本橋２‐２‐１５ テイトビル","35.68173710000001","139.772458"
"ドトールコーヒーショップ 清瀬北口店","東京都清瀬市元町１‐２‐７","35.7721929","139.520334"
"ドトールコーヒーショップ 目黒東口店","東京都品川区上大崎２‐１４‐５","35.634081","139.7171058"
"ドトールコーヒーショップ 方南町店","東京都杉並区方南２‐１３‐９","35.6835233","139.6585981"
"ドトールコーヒーショップ 芝浦３丁目店","東京都港区芝浦３‐１１‐７ 根本ビル１Ｆ","35.6427449","139.7498156"
"ドトールコーヒーショップ 新橋南店","東京都港区新橋４‐６‐６ 米山ビル１Ｆ","35.6647866","139.7558443"
"ドトールコーヒーショップ 西新宿３丁目店","東京都新宿区西新宿３‐１‐７ 新宿嘉泉ビル","35.6872661","139.6946872"
"ドトールコーヒーショップ 渋谷神南１丁目店","東京都渋谷区神南１‐１０‐１","35.6628604","139.7011397"
"ドトールコーヒーショップ 久我山店","東京都杉並区久我山５‐７‐１８","35.6880327","139.6000221"
"ドトールコーヒーショップ 田無駅ビル店","東京都西東京市田無町４‐１‐３","35.7270452","139.5396543"
"ドトールコーヒーショップ 神田西口店","東京都千代田区内神田１‐１７ 小堀ビル１Ｆ","35.69146080000001","139.7666157"
"ドトールコーヒーショップ 南青山店","東京都港区南青山５‐９‐２０","35.6633551","139.7111749"
"ドトールコーヒーショップ 西新宿１丁目店","東京都新宿区西新宿１‐１３‐８ 朝日新宿ビル","35.6895336","139.6965701"
"ドトールコーヒーショップ 渋谷１丁目店","東京都渋谷区渋谷１‐１４‐１５","35.6601219","139.7025952"
"ドトールコーヒーショップ 神保町２丁目店","東京都千代田区神田神保町２‐１７ 神田神保町ビル","35.6950747","139.7579348"
"ドトールコーヒーショップ 築地２丁目店","東京都中央区築地２‐１２‐８","35.6679897","139.7720337"
"ドトールコーヒーショップ 東陽町店","東京都江東区東陽４‐５‐１８ メトロハイツ東陽","35.6703347","139.8183035"
"ドトールコーヒーショップ 水道橋東口店","東京都千代田区三崎町２‐１‐１６ プラージュビル１Ｆ","35.7000908","139.7557503"
"ドトールコーヒーショップ 新宿南口店","東京都渋谷区代々木２‐１０‐１ 新宿サンセイビル１Ｆ","35.6880956","139.6983568"
"ドトールコーヒーショップ 八丁堀店","東京都中央区八丁堀２-２６-１５","35.6751195","139.7753361"
"ドトールコーヒーショップ 神保町３丁目店","東京都千代田区神田神保町３‐２","35.696158","139.7544284"
"ドトールコーヒーショップ 新橋銀座口店","東京都港区新橋１‐８‐４ 丸忠ビル１Ｆ","35.6669732","139.7604261"
"ドトールコーヒーショップ 日本橋本町店","東京都中央区日本橋本町２‐３‐１５","35.6875958","139.7756051"
"ドトールコーヒーショップ 四谷３丁目店","東京都新宿区四谷３‐９","35.6877052","139.7199423"
"ドトールコーヒーショップ 京成立石店","東京都葛飾区立石４‐２５‐８ 近江ビル","35.7387151","139.8491305"
"ドトールコーヒーショップ 錦糸町店","東京都墨田区江東橋４‐２７‐１４ 楽天地ビル１Ｆ","35.6964931","139.8157855"
"ドトールコーヒーショップ 神谷町店","東京都港区虎ノ門４‐１‐１０ 青木ビル１Ｆ","35.6643498","139.7448254"
"ドトールコーヒーショップ 大森店","東京都大田区大森北１‐５‐５","35.5873703","139.7282402"
"ドトールコーヒーショップ 人形町３丁目店","東京都中央区日本橋人形町３‐３‐１０ 日本橋ＴＥＣビル","35.6857837","139.7808441"
"ドトールコーヒーショップ 御徒町南口店","東京都台東区上野５‐２０‐６","35.7089183","139.7742183"
"ドトールコーヒーショップ 新宿サブナード店","東京都新宿区歌舞伎町１丁目 サブナード地下街１丁目","35.693445","139.7021138"
"ドトールコーヒーショップ 岩本町２丁目店","東京都千代田区岩本町２‐８ 井桁ビル１Ｆ","35.6924406","139.7763305"
"ドトールコーヒーショップ 東中野店","東京都中野区東中野３‐８‐２","35.7068352","139.682737"
"ドトールコーヒーショップ 新川永代通り店","東京都中央区新川１‐２‐１０ 新川武蔵屋ビル１Ｆ","35.6789082","139.7825105"
"ドトールコーヒーショップ 三田３丁目店","東京都港区三田３‐４‐１１","35.6471081","139.7440613"
"ドトールコーヒーショップ 東武浅草北口店","東京都台東区花川戸１‐１０‐２","35.712813","139.7994191"
"ドトールコーヒーショップ 銀座４丁目店","東京都中央区銀座４‐１１‐６ 銀座島倉ビル","35.6698689","139.7687023"
"ドトールコーヒーショップ 新川１丁目店","東京都中央区新川１‐４‐１１","35.6775166","139.7805801"
"ドトールコーヒーショップ 小伝馬町店","東京都中央区日本橋小伝馬町１５‐１６","35.6920093","139.7800769"
"ドトールコーヒーショップ 神田松永町店","東京都千代田区神田松永町１８‐１ ビオレ秋葉原１Ｆ","35.7005888","139.7752879"
"ドトールコーヒーショップ 赤坂２丁目店","東京都港区赤坂２‐１１‐１５","35.6704413","139.7410276"
"ドトールコーヒーショップ サンシャインシティアルパ店","東京都豊島区東池袋３‐１ サンシャインシティ・アルパＢ１Ｆ","35.728955","139.71933"
"ドトールコーヒーショップ 豊田店","東京都日野市多摩平１‐２‐１","35.660394","139.3806835"
"ドトールコーヒーショップ 中目黒店","東京都目黒区上目黒３‐３‐２","35.6445209","139.6985294"
"ドトールコーヒーショップ 調布北口店","東京都調布市小島町１‐１２‐７ 小笠原ビル１Ｆ","35.6535946","139.5431353"
"ドトールコーヒーショップ 恵比寿東店","東京都渋谷区東３‐２５‐５ グランドメゾン恵比寿東","35.6486","139.7102249"
"ドトールコーヒーショップ 東池袋１丁目店","東京都豊島区東池袋１‐１７‐３ ウェルシャン池袋１Ｆ","35.7318611","139.714873"
"ドトールコーヒーショップ 外神田１丁目店","東京都千代田区外神田１‐６‐６","35.6995442","139.769494"
"ドトールコーヒーショップ 大手町ファーストスクエア店","東京都千代田区大手町１‐５‐１ 大手町ファーストスクエアビルＢ１Ｆ","35.6858142","139.7644864"
"ドトールコーヒーショップ 代々木店","東京都渋谷区代々木１‐３６‐７ 代々木駅前ビル１Ｆ","35.6836501","139.7013884"
"ドトールコーヒーショップ 日本橋小舟町店","東京都中央区日本橋小舟町１１‐８","35.6875459","139.7784466"
"ドトールコーヒーショップ 曙橋店","東京都新宿区住吉町７‐１ 福松ビル１Ｆ","35.6925852","139.7232326"
"ドトールコーヒーショップ 渋谷３丁目北店","東京都渋谷区渋谷３‐６‐２ エクラート渋谷ビル","35.6579154","139.7049787"
"ドトールコーヒーショップ 神田淡路町店","東京都千代田区神田須田町１‐２‐１ カルフール神田","35.6951557","139.767624"
"ドトールコーヒーショップ ひばりヶ丘南口店","東京都西東京市住吉町３‐９‐８","35.75101009999999","139.5455296"
"ドトールコーヒーショップ 蒲田東口店","東京都大田区蒲田５‐１１‐１０","35.5630982","139.7169787"
"ドトールコーヒーショップ 浜松町１丁目店","東京都港区浜松町１‐２９‐９ ＦＡ小林ビル","35.6568659","139.7556846"
"ドトールコーヒーショップ 武蔵小山店","東京都品川区小山３‐２２‐１７","35.6190047","139.7055434"
"ドトールコーヒーショップ 田町センタービル店","東京都港区芝５‐３４‐７ 田町センタービル","35.6462308","139.7469212"
"ドトールコーヒーショップ 成城学園北口店","東京都世田谷区成城６‐９‐１ 五和ビル１Ｆ","35.640476","139.5984207"
"ドトールコーヒーショップ 尾山台店","東京都世田谷区尾山台３‐３４‐８","35.60692969999999","139.6532791"
"ドトールコーヒーショップ 築地聖路加通り店","東京都中央区築地３‐７‐１ 築地吉本ビル","35.6679528","139.7736346"
"ドトールコーヒーショップ 市ヶ谷駅前店","東京都千代田区九段南４‐８‐２７ 重盛ビル","35.6914213","139.7378398"
"ドトールコーヒーショップ 学芸大学店","東京都目黒区鷹番２‐１６‐１８","35.6288863","139.6871309"
"ドトールコーヒーショップ 台東４丁目店","東京都台東区台東４‐２８‐８ 跡部ビル１Ｆ","35.7071076","139.7794625"
"ドトールコーヒーショップ 西池袋１丁目メトロポリタン通り店","東京都豊島区西池袋１‐９‐１１ カーサ池袋１Ｆ","35.728962","139.7087288"
"ドトールコーヒーショップ 新宿アイランド店","東京都新宿区西新宿６‐４‐１ 新宿アイランドアトリウム１Ｆ","35.6938971","139.6931715"
"ドトールコーヒーショップ 吉祥寺元町通り店","東京都武蔵野市吉祥寺本町１‐８‐１０ 元町八番館ビル","35.7048796","139.5784439"
"ドトールコーヒーショップ 原宿竹下口店","東京都渋谷区神宮前１‐１７‐１ ルポンテビル１Ｆ","35.6714095","139.7032234"
"ドトールコーヒーショップ サンライズ蒲田店","東京都大田区西蒲田７‐６２‐４","35.5621539","139.7129903"
"ドトールコーヒーショップ 田原町駅前店","東京都台東区西浅草１‐１‐１６ カーサ田原町","35.7103969","139.7912904"
"ドトールコーヒーショップ 日暮里駅前店","東京都荒川区西日暮里２‐１９‐７ 東忠ビル１Ｆ","35.728196","139.7715653"
"ドトールコーヒーショップ 原宿店","東京都渋谷区神宮前１‐１３‐１８ 第２大英ビル","35.6697198","139.7034129"
"ドトールコーヒーショップ 新高円寺店","東京都杉並区梅里２‐１‐１７","35.69754930000001","139.6476843"
"ドトールコーヒーショップ 新宿２丁目店","東京都新宿区新宿２‐５‐８ 志村ビル１Ｆ","35.6897105","139.7069036"
"ドトールコーヒーショップ 町田駅前店","東京都町田市原町田６‐１１‐１０ 第一柿島ビル","35.5444359","139.4461437"
"ドトールコーヒーショップ あきる野とうきゅう店","東京都あきる野市秋川１‐１７‐１","35.7307363","139.2873257"
"ドトールコーヒーショップ 秋葉原和泉橋店","東京都千代田区神田岩本町１ 山上ビル","35.6962798","139.7751145"
"ドトールコーヒーショップ 福生駅東口店","東京都福生市東町４‐１２","35.7425","139.3279431"
"ドトールコーヒーショップ 荻窪北口大通り店","東京都杉並区上荻１‐１６‐１７","35.7054483","139.6194698"
"ドトールコーヒーショップ 京王府中店","東京都府中市府中町１‐３‐６ 京王府中ショッピングセンター内","35.6720466","139.4809528"
"ドトールコーヒーショップ 洗足駅前店","東京都目黒区洗足２‐２１‐１","35.6103027","139.6943169"
"ドトールコーヒーショップ 中板橋北口店","東京都板橋区中板橋２３‐２","35.7558359","139.6957947"
"ドトールコーヒーショップ 門前仲町２丁目店","東京都江東区門前仲町２‐４‐１２","35.6721953","139.7958428"
"ドトールコーヒーショップ 鴬谷北口店","東京都台東区根岸１‐９‐９","35.7228837","139.7777507"
"ドトールコーヒーショップ 入谷駅前店","東京都台東区下谷２‐１‐１０","35.7202759","139.783856"
"ドトールコーヒーショップ 新宿３丁目東店","東京都新宿区新宿３‐１１‐９ 花菱ビル１Ｆ","35.6919092","139.7065545"
"ドトールコーヒーショップ 中野坂上店","東京都中野区本町２‐４６‐１","35.6967252","139.6821014"
"ドトールコーヒーショップ 西新橋３丁目店","東京都港区西新橋３‐８‐１ 第二鈴丸ビル１Ｆ","35.664618","139.7526502"
"ドトールコーヒーショップ リエッタ綾瀬店","東京都足立区綾瀬３-１-１０","35.7606609","139.8223671"
"ドトールコーヒーショップ 市ヶ谷プラザ店","東京都千代田区九段北４‐２‐１５","35.6915442","139.7367381"
"ドトールコーヒーショップ 錦糸町楽天地ビル地下店","東京都墨田区江東橋４‐２７‐１４","35.6964979","139.815807"
"ドトールコーヒーショップ グリナード永山店","東京都多摩市永山１‐４ グリナード永山１０２","35.6291256","139.4483211"
"ドトールコーヒーショップ 御嶽山店","東京都大田区北嶺町３２‐１３","35.5855364","139.681631"
"ドトールコーヒーショップ 町田幸町通り店","東京都町田市原町田６‐２１‐２８","35.543337","139.4478929"
"ドトールコーヒーショップ 喜多見店","東京都世田谷区喜多見８‐１８‐１１","35.6363335","139.588109"
"ドトールコーヒーショップ 錦糸町北口店","東京都墨田区錦糸３‐２‐１ アルカイースト１Ｆ","35.6974959","139.8143467"
"ドトールコーヒーショップ 高尾駅前店","東京都八王子市初沢町１２３１‐１６ 京王クラウン街高尾","35.6420006","139.2832539"
"ドトールコーヒーショップ 神田東口店","東京都千代田区鍛冶町２‐７‐３ 国際ビル","35.692454","139.771821"
"ドトールコーヒーショップ 東武北千住駅店","東京都足立区千住旭町４２","35.748468","139.8048222"
"ドトールコーヒーショップ 新大手町ビル店","東京都千代田区大手町２‐２‐１","35.6852764","139.7670557"
"ドトールコーヒーショップ 新宿文化センター通り店","東京都新宿区新宿５‐１８‐１０","35.6947401","139.7060518"
"ドトールコーヒーショップ 新木場メトロピア店","東京都江東区新木場１‐６先","35.6458625","139.8264346"
"ドトールコーヒーショップ 学芸大学駅前店","東京都目黒区鷹番３‐６‐１","35.6290612","139.6851533"
"ドトールコーヒーショップ 半蔵門店","東京都千代田区麹町１‐８‐８ グランドメゾン麹町１Ｆ","35.6854111","139.7418514"
"ドトールコーヒーショップ 森下店","東京都江東区森下１‐１２‐９","35.6875962","139.7980728"
"ドトールコーヒーショップ 府中フォーリス店","東京都府中市宮町１‐４１‐１","35.6706622","139.4794473"
"ドトールコーヒーショップ 京王多摩センター店","東京都多摩市落合１‐１０‐１ 京王多摩センターＳＣ","35.6253446","139.4242797"
"ドトールコーヒーショップ 代々木八幡店","東京都渋谷区富ヶ谷１‐５２‐１","35.6690232","139.6888795"
"ドトールコーヒーショップ 大塚南口店","東京都豊島区南大塚３‐５３‐５","35.7305482","139.7284983"
"ドトールコーヒーショップ 新宿１丁目南店","東京都新宿区新宿１‐２０‐４","35.6890993","139.7122625"
"ドトールコーヒーショップ 駒込東口店","東京都北区中里１‐６‐１ 中里鈴木ビル","35.7369475","139.7495361"
"ドトールコーヒーショップ 豊洲メトロピア店","東京都江東区豊洲４‐１‐１","35.6546026","139.7970404"
"ドトールコーヒーショップ 武蔵小金井店","東京都小金井市本町５‐１２‐１４","35.7019648","139.5060829"
"ドトールコーヒーショップ 西葛西北口店","東京都江戸川区西葛西３‐１６‐１２","35.6656695","139.8588173"
"ドトールコーヒーショップ 駒込南口店","東京都文京区本駒込６‐１５‐１","35.7349395","139.7470554"
"ドトールコーヒーショップ 荻窪南口店","東京都杉並区荻窪５‐２９‐７","35.703693","139.6211502"
"ドトールコーヒーショップ 旗の台中原街道店","東京都品川区旗の台１‐４‐１３","35.6074255","139.7038689"
"ドトールコーヒーショップ 飯田橋富士見店","東京都千代田区富士見２‐３‐１０","35.6994018","139.7448705"
"ドトールコーヒーショップ 明大前店","東京都世田谷区松原２‐４６‐２ プリマベーラ春山１Ｆ","35.6687952","139.6500515"
"ドトールコーヒーショップ 日本橋２丁目西店","東京都中央区日本橋２‐２‐１５ テイトビル","35.68173710000001","139.772458"
"ドトールコーヒーショップ 清瀬北口店","東京都清瀬市元町１‐２‐７","35.7721929","139.520334"
"ドトールコーヒーショップ 目黒東口店","東京都品川区上大崎２‐１４‐５","35.634081","139.7171058"
"ドトールコーヒーショップ 方南町店","東京都杉並区方南２‐１３‐９","35.6835233","139.6585981"
"ドトールコーヒーショップ 芝浦３丁目店","東京都港区芝浦３‐１１‐７ 根本ビル１Ｆ","35.6427449","139.7498156"
"ドトールコーヒーショップ 新橋南店","東京都港区新橋４‐６‐６ 米山ビル１Ｆ","35.6647866","139.7558443"
"ドトールコーヒーショップ 西新宿３丁目店","東京都新宿区西新宿３‐１‐７ 新宿嘉泉ビル","35.6872661","139.6946872"
"ドトールコーヒーショップ 渋谷神南１丁目店","東京都渋谷区神南１‐１０‐１","35.6628604","139.7011397"
"ドトールコーヒーショップ 久我山店","東京都杉並区久我山５‐７‐１８","35.6880327","139.6000221"
"ドトールコーヒーショップ 田無駅ビル店","東京都西東京市田無町４‐１‐３","35.7270452","139.5396543"
"ドトールコーヒーショップ 聖蹟桜ヶ丘店","東京都多摩市関戸１‐７‐１ 京王聖蹟桜ヶ丘ショッピングセンターＣ館","35.6508597","139.4473588"
"ドトールコーヒーショップ 四谷１丁目南店","東京都新宿区四谷１‐１８ 四谷プラザビル","35.6862562","139.7273829"
"ドトールコーヒーショップ 浜田山店","東京都杉並区浜田山３‐３０‐１１","35.6825701","139.6272838"
"ドトールコーヒーショップ 新宿駅構内ルミネ店","東京都新宿区新宿３‐３８‐１ ＪＲ新宿駅南口改札内","35.6896424","139.7005087"
"ドトールコーヒーショップ 菊川店","東京都墨田区菊川２‐５‐６","35.6881989","139.8051887"
"ドトールコーヒーショップ エッソ町田金森店","東京都町田市金森３-２１-１５","35.5283178","139.4631036"
"ドトールコーヒーショップ 成増２丁目店","東京都板橋区成増２‐２１‐３","35.7777981","139.6301716"
"ドトールコーヒーショップ 飯田橋神楽坂店","東京都新宿区神楽坂１‐１２","35.7006599","139.7424651"
"ドトールコーヒーショップ 北青山店","東京都港区北青山１‐２‐３ 青山ビルヂング１０６区","35.6729861","139.7231329"
"ドトールコーヒーショップ 西日暮里店","東京都荒川区西日暮里５‐１４‐１ 太陽ビル","35.7325297","139.7679635"
"ドトールコーヒーショップ 西葛西南口店","東京都江戸川区西葛西６‐１６‐４","35.6638364","139.8595341"
"ドトールコーヒーショップ 武蔵境北口店","東京都武蔵野市境２‐１３‐１","35.6993551","139.5437879"
"ドトールコーヒーショップ 東高円寺店","東京都杉並区高円寺南１‐７‐１ 陽輪台高円寺Ｂ１Ｆ","35.698246","139.658081"
"ドトールコーヒーショップ 新宿ビルディング店","東京都新宿区西新宿１‐８‐１ 新宿ビルディングＢ２Ｆ","35.690807","139.6968558"
"ドトールコーヒーショップ 鶴川店","東京都町田市能ヶ谷１‐６‐１１","35.5834742","139.4814231"
"ドトールコーヒーショップ 雑色店","東京都大田区仲六郷２‐２８‐４","35.5503224","139.7146935"
"ドトールコーヒーショップ 赤坂４丁目店","東京都港区赤坂４‐８‐２０","35.6762709","139.7339168"
"ドトールコーヒーショップ 武蔵境イトーヨーカドー店","東京都武蔵野市境南町２‐２‐２０ イトーヨーカドー東館１Ｆ","35.701144","139.545732"
"ドトールコーヒーショップ 飯田橋東口店","東京都新宿区揚場町２‐１６","35.7028097","139.7424678"
"ドトールコーヒーショップ エッソ久留米ニュータウン店","東京都小平市大沼町２‐７２１‐６","35.7437847","139.4984646"
"ドトールコーヒーショップ 神田西口店","東京都千代田区内神田１‐１７ 小堀ビル１Ｆ","35.69146080000001","139.7666157"
"ドトールコーヒーショップ 南青山店","東京都港区南青山５‐９‐２０","35.6633551","139.7111749"
"ドトールコーヒーショップ 西新宿１丁目店","東京都新宿区西新宿１‐１３‐８ 朝日新宿ビル","35.6895336","139.6965701"
"ドトールコーヒーショップ 渋谷１丁目店","東京都渋谷区渋谷１‐１４‐１５","35.6601219","139.7025952"
"ドトールコーヒーショップ 神保町２丁目店","東京都千代田区神田神保町２‐１７ 神田神保町ビル","35.6950747","139.7579348"
"ドトールコーヒーショップ 築地２丁目店","東京都中央区築地２‐１２‐８","35.6679897","139.7720337"
"ドトールコーヒーショップ 東陽町店","東京都江東区東陽４‐５‐１８ メトロハイツ東陽","35.6703347","139.8183035"
"ドトールコーヒーショップ 水道橋東口店","東京都千代田区三崎町２‐１‐１６ プラージュビル１Ｆ","35.7000908","139.7557503"
"ドトールコーヒーショップ 新宿南口店","東京都渋谷区代々木２‐１０‐１ 新宿サンセイビル１Ｆ","35.6880956","139.6983568"
"ドトールコーヒーショップ 八丁堀店","東京都中央区八丁堀２-２６-１５","35.6751195","139.7753361"
"ドトールコーヒーショップ 神保町３丁目店","東京都千代田区神田神保町３‐２","35.696158","139.7544284"
"ドトールコーヒーショップ 新橋銀座口店","東京都港区新橋１‐８‐４ 丸忠ビル１Ｆ","35.6669732","139.7604261"
"ドトールコーヒーショップ 日本橋本町店","東京都中央区日本橋本町２‐３‐１５","35.6875958","139.7756051"
"ドトールコーヒーショップ 四谷３丁目店","東京都新宿区四谷３‐９","35.6877052","139.7199423"
"ドトールコーヒーショップ 京成立石店","東京都葛飾区立石４‐２５‐８ 近江ビル","35.7387151","139.8491305"
"ドトールコーヒーショップ 錦糸町店","東京都墨田区江東橋４‐２７‐１４ 楽天地ビル１Ｆ","35.6964931","139.8157855"
"ドトールコーヒーショップ 神谷町店","東京都港区虎ノ門４‐１‐１０ 青木ビル１Ｆ","35.6643498","139.7448254"
"ドトールコーヒーショップ 大森店","東京都大田区大森北１‐５‐５","35.5873703","139.7282402"
"ドトールコーヒーショップ 人形町３丁目店","東京都中央区日本橋人形町３‐３‐１０ 日本橋ＴＥＣビル","35.6857837","139.7808441"
"ドトールコーヒーショップ 御徒町南口店","東京都台東区上野５‐２０‐６","35.7089183","139.7742183"
"ドトールコーヒーショップ 新宿サブナード店","東京都新宿区歌舞伎町１丁目 サブナード地下街１丁目","35.693445","139.7021138"
"ドトールコーヒーショップ 岩本町２丁目店","東京都千代田区岩本町２‐８ 井桁ビル１Ｆ","35.6924406","139.7763305"
"ドトールコーヒーショップ 東中野店","東京都中野区東中野３‐８‐２","35.7068352","139.682737"
"ドトールコーヒーショップ 新川永代通り店","東京都中央区新川１‐２‐１０ 新川武蔵屋ビル１Ｆ","35.6789082","139.7825105"
"ドトールコーヒーショップ 三田３丁目店","東京都港区三田３‐４‐１１","35.6471081","139.7440613"
"ドトールコーヒーショップ 東武浅草北口店","東京都台東区花川戸１‐１０‐２","35.712813","139.7994191"
"ドトールコーヒーショップ 銀座４丁目店","東京都中央区銀座４‐１１‐６ 銀座島倉ビル","35.6698689","139.7687023"
"ドトールコーヒーショップ 新川１丁目店","東京都中央区新川１‐４‐１１","35.6775166","139.7805801"
"ドトールコーヒーショップ 小伝馬町店","東京都中央区日本橋小伝馬町１５‐１６","35.6920093","139.7800769"
"ドトールコーヒーショップ 神田松永町店","東京都千代田区神田松永町１８‐１ ビオレ秋葉原１Ｆ","35.7005888","139.7752879"
"ドトールコーヒーショップ 赤坂２丁目店","東京都港区赤坂２‐１１‐１５","35.6704413","139.7410276"
"ドトールコーヒーショップ サンシャインシティアルパ店","東京都豊島区東池袋３‐１ サンシャインシティ・アルパＢ１Ｆ","35.728955","139.71933"
"ドトールコーヒーショップ 豊田店","東京都日野市多摩平１‐２‐１","35.660394","139.3806835"
"ドトールコーヒーショップ 中目黒店","東京都目黒区上目黒３‐３‐２","35.6445209","139.6985294"
"ドトールコーヒーショップ 調布北口店","東京都調布市小島町１‐１２‐７ 小笠原ビル１Ｆ","35.6535946","139.5431353"
"ドトールコーヒーショップ 恵比寿東店","東京都渋谷区東３‐２５‐５ グランドメゾン恵比寿東","35.6486","139.7102249"
"ドトールコーヒーショップ 東池袋１丁目店","東京都豊島区東池袋１‐１７‐３ ウェルシャン池袋１Ｆ","35.7318611","139.714873"
"ドトールコーヒーショップ 外神田１丁目店","東京都千代田区外神田１‐６‐６","35.6995442","139.769494"
"ドトールコーヒーショップ 大手町ファーストスクエア店","東京都千代田区大手町１‐５‐１ 大手町ファーストスクエアビルＢ１Ｆ","35.6858142","139.7644864"
"ドトールコーヒーショップ 代々木店","東京都渋谷区代々木１‐３６‐７ 代々木駅前ビル１Ｆ","35.6836501","139.7013884"
"ドトールコーヒーショップ 日本橋小舟町店","東京都中央区日本橋小舟町１１‐８","35.6875459","139.7784466"
"ドトールコーヒーショップ 曙橋店","東京都新宿区住吉町７‐１ 福松ビル１Ｆ","35.6925852","139.7232326"
"ドトールコーヒーショップ 渋谷３丁目北店","東京都渋谷区渋谷３‐６‐２ エクラート渋谷ビル","35.6579154","139.7049787"
"ドトールコーヒーショップ 神田淡路町店","東京都千代田区神田須田町１‐２‐１ カルフール神田","35.6951557","139.767624"
"ドトールコーヒーショップ ひばりヶ丘南口店","東京都西東京市住吉町３‐９‐８","35.75101009999999","139.5455296"
"ドトールコーヒーショップ 蒲田東口店","東京都大田区蒲田５‐１１‐１０","35.5630982","139.7169787"
"ドトールコーヒーショップ 浜松町１丁目店","東京都港区浜松町１‐２９‐９ ＦＡ小林ビル","35.6568659","139.7556846"
"ドトールコーヒーショップ 武蔵小山店","東京都品川区小山３‐２２‐１７","35.6190047","139.7055434"
"ドトールコーヒーショップ 田町センタービル店","東京都港区芝５‐３４‐７ 田町センタービル","35.6462308","139.7469212"
"ドトールコーヒーショップ 成城学園北口店","東京都世田谷区成城６‐９‐１ 五和ビル１Ｆ","35.640476","139.5984207"
"ドトールコーヒーショップ 尾山台店","東京都世田谷区尾山台３‐３４‐８","35.60692969999999","139.6532791"
"ドトールコーヒーショップ 築地聖路加通り店","東京都中央区築地３‐７‐１ 築地吉本ビル","35.6679528","139.7736346"
"ドトールコーヒーショップ 市ヶ谷駅前店","東京都千代田区九段南４‐８‐２７ 重盛ビル","35.6914213","139.7378398"
"ドトールコーヒーショップ 学芸大学店","東京都目黒区鷹番２‐１６‐１８","35.6288863","139.6871309"
"ドトールコーヒーショップ 台東４丁目店","東京都台東区台東４‐２８‐８ 跡部ビル１Ｆ","35.7071076","139.7794625"
"ドトールコーヒーショップ 西池袋１丁目メトロポリタン通り店","東京都豊島区西池袋１‐９‐１１ カーサ池袋１Ｆ","35.728962","139.7087288"
"ドトールコーヒーショップ 新宿アイランド店","東京都新宿区西新宿６‐４‐１ 新宿アイランドアトリウム１Ｆ","35.6938971","139.6931715"
"ドトールコーヒーショップ 吉祥寺元町通り店","東京都武蔵野市吉祥寺本町１‐８‐１０ 元町八番館ビル","35.7048796","139.5784439"
"ドトールコーヒーショップ 原宿竹下口店","東京都渋谷区神宮前１‐１７‐１ ルポンテビル１Ｆ","35.6714095","139.7032234"
"ドトールコーヒーショップ サンライズ蒲田店","東京都大田区西蒲田７‐６２‐４","35.5621539","139.7129903"
"ドトールコーヒーショップ 田原町駅前店","東京都台東区西浅草１‐１‐１６ カーサ田原町","35.7103969","139.7912904"
"ドトールコーヒーショップ 日暮里駅前店","東京都荒川区西日暮里２‐１９‐７ 東忠ビル１Ｆ","35.728196","139.7715653"
"ドトールコーヒーショップ 原宿店","東京都渋谷区神宮前１‐１３‐１８ 第２大英ビル","35.6697198","139.7034129"
"ドトールコーヒーショップ 新高円寺店","東京都杉並区梅里２‐１‐１７","35.69754930000001","139.6476843"
"ドトールコーヒーショップ 新宿２丁目店","東京都新宿区新宿２‐５‐８ 志村ビル１Ｆ","35.6897105","139.7069036"
"ドトールコーヒーショップ 町田駅前店","東京都町田市原町田６‐１１‐１０ 第一柿島ビル","35.5444359","139.4461437"
"ドトールコーヒーショップ あきる野とうきゅう店","東京都あきる野市秋川１‐１７‐１","35.7307363","139.2873257"
"ドトールコーヒーショップ 秋葉原和泉橋店","東京都千代田区神田岩本町１ 山上ビル","35.6962798","139.7751145"
"ドトールコーヒーショップ 福生駅東口店","東京都福生市東町４‐１２","35.7425","139.3279431"
"ドトールコーヒーショップ 荻窪北口大通り店","東京都杉並区上荻１‐１６‐１７","35.7054483","139.6194698"
"ドトールコーヒーショップ 京王府中店","東京都府中市府中町１‐３‐６ 京王府中ショッピングセンター内","35.6720466","139.4809528"
"ドトールコーヒーショップ 洗足駅前店","東京都目黒区洗足２‐２１‐１","35.6103027","139.6943169"
"ドトールコーヒーショップ 中板橋北口店","東京都板橋区中板橋２３‐２","35.7558359","139.6957947"
"ドトールコーヒーショップ 門前仲町２丁目店","東京都江東区門前仲町２‐４‐１２","35.6721953","139.7958428"
"ドトールコーヒーショップ 鴬谷北口店","東京都台東区根岸１‐９‐９","35.7228837","139.7777507"
"ドトールコーヒーショップ 入谷駅前店","東京都台東区下谷２‐１‐１０","35.7202759","139.783856"
"ドトールコーヒーショップ 新宿３丁目東店","東京都新宿区新宿３‐１１‐９ 花菱ビル１Ｆ","35.6919092","139.7065545"
"ドトールコーヒーショップ 中野坂上店","東京都中野区本町２‐４６‐１","35.6967252","139.6821014"
"ドトールコーヒーショップ 西新橋３丁目店","東京都港区西新橋３‐８‐１ 第二鈴丸ビル１Ｆ","35.664618","139.7526502"
"ドトールコーヒーショップ リエッタ綾瀬店","東京都足立区綾瀬３-１-１０","35.7606609","139.8223671"
"ドトールコーヒーショップ 市ヶ谷プラザ店","東京都千代田区九段北４‐２‐１５","35.6915442","139.7367381"
"ドトールコーヒーショップ 錦糸町楽天地ビル地下店","東京都墨田区江東橋４‐２７‐１４","35.6964979","139.815807"
"ドトールコーヒーショップ グリナード永山店","東京都多摩市永山１‐４ グリナード永山１０２","35.6291256","139.4483211"
"ドトールコーヒーショップ 御嶽山店","東京都大田区北嶺町３２‐１３","35.5855364","139.681631"
"ドトールコーヒーショップ 町田幸町通り店","東京都町田市原町田６‐２１‐２８","35.543337","139.4478929"
"ドトールコーヒーショップ 喜多見店","東京都世田谷区喜多見８‐１８‐１１","35.6363335","139.588109"
"ドトールコーヒーショップ 錦糸町北口店","東京都墨田区錦糸３‐２‐１ アルカイースト１Ｆ","35.6974959","139.8143467"
"ドトールコーヒーショップ 高尾駅前店","東京都八王子市初沢町１２３１‐１６ 京王クラウン街高尾","35.6420006","139.2832539"
"ドトールコーヒーショップ 神田東口店","東京都千代田区鍛冶町２‐７‐３ 国際ビル","35.692454","139.771821"
"ドトールコーヒーショップ 東武北千住駅店","東京都足立区千住旭町４２","35.748468","139.8048222"
"ドトールコーヒーショップ 新大手町ビル店","東京都千代田区大手町２‐２‐１","35.6852764","139.7670557"
"ドトールコーヒーショップ 新宿文化センター通り店","東京都新宿区新宿５‐１８‐１０","35.6947401","139.7060518"
"ドトールコーヒーショップ 新木場メトロピア店","東京都江東区新木場１‐６先","35.6458625","139.8264346"
"ドトールコーヒーショップ 学芸大学駅前店","東京都目黒区鷹番３‐６‐１","35.6290612","139.6851533"
"ドトールコーヒーショップ 半蔵門店","東京都千代田区麹町１‐８‐８ グランドメゾン麹町１Ｆ","35.6854111","139.7418514"
"ドトールコーヒーショップ 森下店","東京都江東区森下１‐１２‐９","35.6875962","139.7980728"
"ドトールコーヒーショップ 府中フォーリス店","東京都府中市宮町１‐４１‐１","35.6706622","139.4794473"
"ドトールコーヒーショップ 京王多摩センター店","東京都多摩市落合１‐１０‐１ 京王多摩センターＳＣ","35.6253446","139.4242797"
"ドトールコーヒーショップ 代々木八幡店","東京都渋谷区富ヶ谷１‐５２‐１","35.6690232","139.6888795"
"ドトールコーヒーショップ 大塚南口店","東京都豊島区南大塚３‐５３‐５","35.7305482","139.7284983"
"ドトールコーヒーショップ 新宿１丁目南店","東京都新宿区新宿１‐２０‐４","35.6890993","139.7122625"
"ドトールコーヒーショップ 駒込東口店","東京都北区中里１‐６‐１ 中里鈴木ビル","35.7369475","139.7495361"
"ドトールコーヒーショップ 豊洲メトロピア店","東京都江東区豊洲４‐１‐１","35.6546026","139.7970404"
"ドトールコーヒーショップ 武蔵小金井店","東京都小金井市本町５‐１２‐１４","35.7019648","139.5060829"
"ドトールコーヒーショップ 西葛西北口店","東京都江戸川区西葛西３‐１６‐１２","35.6656695","139.8588173"
"ドトールコーヒーショップ 駒込南口店","東京都文京区本駒込６‐１５‐１","35.7349395","139.7470554"
"ドトールコーヒーショップ 荻窪南口店","東京都杉並区荻窪５‐２９‐７","35.703693","139.6211502"
"ドトールコーヒーショップ 旗の台中原街道店","東京都品川区旗の台１‐４‐１３","35.6074255","139.7038689"
"ドトールコーヒーショップ 飯田橋富士見店","東京都千代田区富士見２‐３‐１０","35.6994018","139.7448705"
"ドトールコーヒーショップ 明大前店","東京都世田谷区松原２‐４６‐２ プリマベーラ春山１Ｆ","35.6687952","139.6500515"
"ドトールコーヒーショップ 日本橋２丁目西店","東京都中央区日本橋２‐２‐１５ テイトビル","35.68173710000001","139.772458"
"ドトールコーヒーショップ 清瀬北口店","東京都清瀬市元町１‐２‐７","35.7721929","139.520334"
"ドトールコーヒーショップ 目黒東口店","東京都品川区上大崎２‐１４‐５","35.634081","139.7171058"
"ドトールコーヒーショップ 方南町店","東京都杉並区方南２‐１３‐９","35.6835233","139.6585981"
"ドトールコーヒーショップ 芝浦３丁目店","東京都港区芝浦３‐１１‐７ 根本ビル１Ｆ","35.6427449","139.7498156"
"ドトールコーヒーショップ 新橋南店","東京都港区新橋４‐６‐６ 米山ビル１Ｆ","35.6647866","139.7558443"
"ドトールコーヒーショップ 西新宿３丁目店","東京都新宿区西新宿３‐１‐７ 新宿嘉泉ビル","35.6872661","139.6946872"
"ドトールコーヒーショップ 渋谷神南１丁目店","東京都渋谷区神南１‐１０‐１","35.6628604","139.7011397"
"ドトールコーヒーショップ 久我山店","東京都杉並区久我山５‐７‐１８","35.6880327","139.6000221"
"ドトールコーヒーショップ 田無駅ビル店","東京都西東京市田無町４‐１‐３","35.7270452","139.5396543"
"ドトールコーヒーショップ 聖蹟桜ヶ丘店","東京都多摩市関戸１‐７‐１ 京王聖蹟桜ヶ丘ショッピングセンターＣ館","35.6508597","139.4473588"
"ドトールコーヒーショップ 四谷１丁目南店","東京都新宿区四谷１‐１８ 四谷プラザビル","35.6862562","139.7273829"
"ドトールコーヒーショップ 浜田山店","東京都杉並区浜田山３‐３０‐１１","35.6825701","139.6272838"
"ドトールコーヒーショップ 新宿駅構内ルミネ店","東京都新宿区新宿３‐３８‐１ ＪＲ新宿駅南口改札内","35.6896424","139.7005087"
"ドトールコーヒーショップ 菊川店","東京都墨田区菊川２‐５‐６","35.6881989","139.8051887"
"ドトールコーヒーショップ エッソ町田金森店","東京都町田市金森３-２１-１５","35.5283178","139.4631036"
"ドトールコーヒーショップ 成増２丁目店","東京都板橋区成増２‐２１‐３","35.7777981","139.6301716"
"ドトールコーヒーショップ 飯田橋神楽坂店","東京都新宿区神楽坂１‐１２","35.7006599","139.7424651"
"ドトールコーヒーショップ 北青山店","東京都港区北青山１‐２‐３ 青山ビルヂング１０６区","35.6729861","139.7231329"
"ドトールコーヒーショップ 西日暮里店","東京都荒川区西日暮里５‐１４‐１ 太陽ビル","35.7325297","139.7679635"
"ドトールコーヒーショップ 西葛西南口店","東京都江戸川区西葛西６‐１６‐４","35.6638364","139.8595341"
"ドトールコーヒーショップ 武蔵境北口店","東京都武蔵野市境２‐１３‐１","35.6993551","139.5437879"
"ドトールコーヒーショップ 東高円寺店","東京都杉並区高円寺南１‐７‐１ 陽輪台高円寺Ｂ１Ｆ","35.698246","139.658081"
"ドトールコーヒーショップ 新宿ビルディング店","東京都新宿区西新宿１‐８‐１ 新宿ビルディングＢ２Ｆ","35.690807","139.6968558"
"ドトールコーヒーショップ 鶴川店","東京都町田市能ヶ谷１‐６‐１１","35.5834742","139.4814231"
"ドトールコーヒーショップ 雑色店","東京都大田区仲六郷２‐２８‐４","35.5503224","139.7146935"
"ドトールコーヒーショップ 赤坂４丁目店","東京都港区赤坂４‐８‐２０","35.6762709","139.7339168"
"ドトールコーヒーショップ 武蔵境イトーヨーカドー店","東京都武蔵野市境南町２‐２‐２０ イトーヨーカドー東館１Ｆ","35.701144","139.545732"
"ドトールコーヒーショップ 飯田橋東口店","東京都新宿区揚場町２‐１６","35.7028097","139.7424678"
"ドトールコーヒーショップ エッソ久留米ニュータウン店","東京都小平市大沼町２‐７２１‐６","35.7437847","139.4984646"
"ドトールコーヒーショップ エッソ多摩ニュータウン店","東京都八王子市松木３３‐１４","35.6252096","139.3950785"
"ドトールコーヒーショップ 練馬駅店","東京都練馬区練馬１‐３‐５","35.737851","139.6533935"
"ドトールコーヒーショップ エッソ八王子ニュータウン店","東京都八王子市小比企町１１３７‐１","35.6436536","139.3312021"
"ドトールコーヒーショップ 新中野店","東京都中野区中央４‐１‐１","35.6977887","139.6708326"
"ドトールコーヒーショップ 新橋３丁目店","東京都港区新橋３‐４‐８ 昌栄ビル１Ｆ","35.665461","139.7544019"
"ドトールコーヒーショップ 人形町箱崎店","東京都中央区日本橋箱崎町２５‐１","35.6802081","139.7853936"
"ドトールコーヒーショップ 東武浅草地下コンコース店","東京都台東区花川戸１‐４‐１ 東武共同ビルＢ１Ｆ","35.7114139","139.7980498"
"ドトールコーヒーショップ 光が丘店","東京都練馬区光が丘２‐１０‐１","35.7599032","139.6297056"
"ドトールコーヒーショップ 銀座２丁目店","東京都中央区銀座２‐５‐２","35.6741361","139.7671755"
"ドトールコーヒーショップ 新大塚駅前店","東京都豊島区南大塚２‐１１‐７","35.7253543","139.7308817"
"ドトールコーヒーショップ 町田中町店","東京都町田市中町１‐１‐４","35.54574789999999","139.4456902"
"ドトールコーヒーショップ 砂町銀座店","東京都江東区北砂３‐３５‐２１","35.6796641","139.8297057"
"ドトールコーヒーショップ ビーンズ赤羽店","東京都北区赤羽１-１-１ ビーンズ赤羽","35.7786268","139.720309"
"ドトールコーヒーショップ 初台南口店","東京都渋谷区初台１‐５３‐１ 京王初台駅ビル１Ｆ","35.6804907","139.6863915"
"ドトールコーヒーショップ 駒沢大学駅前店","東京都世田谷区上馬３‐１８‐１２","35.6333267","139.6618914"
"ドトールコーヒーショップ エッソ学園金井店","東京都町田市金井町２９４１‐４","35.5691208","139.4538527"
"ドトールコーヒーショップ 目白駅前店","東京都豊島区目白３‐１４‐３ グロワルビル","35.7220388","139.7063251"
"ドトールコーヒーショップ 三鷹北口店","東京都武蔵野市中町１‐１３‐１","35.7036829","139.560764"
"ドトールコーヒーショップ 東久留米西口店","東京都東久留米市本町１‐５‐２１","35.7597281","139.5340221"
"ドトールコーヒーショップ アトレ上野店","東京都台東区上野７‐１‐１ アトレ上野","35.7122684","139.7758273"
"ドトールコーヒーショップ 神田西口店","東京都千代田区内神田１‐１７ 小堀ビル１Ｆ","35.69146080000001","139.7666157"
"ドトールコーヒーショップ 南青山店","東京都港区南青山５‐９‐２０","35.6633551","139.7111749"
