"name","address","lat","lng"
"東札幌5条店","北海道札幌市白石区東札幌5条1丁目3番1号","43.0553861","141.3865661"
"清田北野店","北海道札幌市清田区北野1条2丁目10-31","43.0079731","141.4321531"
"盛岡南店","岩手県盛岡市向中野7-17-55","39.6731031","141.1359752"
"仙台富沢店","宮城県仙台市太白区大野田5-22-1","38.2146484","140.8747425"
"仙台桂店","宮城県仙台市泉区桂1丁目16-7","38.3354485","140.8659188"
"富谷店","宮城県富谷市成田8丁目2-4","38.35977159999999","140.8929982"
"仙台荒井店","宮城県仙台市若林区伊在字南通3","38.2456056","140.9385309"
"山形南館店","山形県山形市南館西1-1","38.2383785","140.3052808"
"山形嶋南店","山形県山形市嶋南2丁目13番26号","38.282108","140.3209613"
"ベイシア白河店","福島県白河市老久保28　ベイシアモール内","37.1168878","140.1992384"
"郡山富田店","福島県郡山市富田町字山王林26-1","37.4181662","140.3632218"
"いわき泉店","福島県いわき市泉町滝尻定ノ田216","36.9550135","140.8604855"
"郡山大槻店","福島県郡山市御前南1-22","37.3863521","140.3325814"
"会津若松白虎通り店","福島県会津若松市白虎町178-1","37.5063766","139.9364586"
"つくば店","茨城県つくば市小野崎129-1","36.07661460000001","140.1061014"
"神栖店","茨城県神栖市知手2974-23","35.87411609999999","140.694811"
"龍ケ崎店","茨城県龍ケ崎市中根台4-1-1","35.9313974","140.1724669"
"土浦真鍋店","茨城県土浦市真鍋2-2-26","36.0916506","140.1988386"
"鹿島神宮南店","茨城県鹿嶋市宮中1996-8","35.96337","140.6299365"
"石岡旭台店","茨城県石岡市旭台2-17-4","36.1932929","140.3028263"
"守谷高野店","茨城県守谷市高野669-1","35.9282657","139.9957904"
"ひたちなか長堀店","茨城県ひたちなか市長堀町3丁目11番2","36.389549","140.5439197"
"水戸石川店","茨城県水戸市石川2丁目4046-13","36.388441","140.4257606"
"古河三杉町店","茨城県古河市三杉町2-3-6","36.2035626","139.7186003"
"ひたち野うしく店","茨城県牛久市ひたち野東5丁目21番2","36.003669","140.1618436"
"水戸元吉田町店","茨城県水戸市元吉田町1029-9","36.35945359999999","140.4908424"
"宇都宮下戸祭店","栃木県宇都宮市下戸祭1-6-1","36.5733324","139.8811455"
"小山店","栃木県小山市西城南3-21-1","36.295185","139.8048726"
"佐野店","栃木県佐野市高萩町1323-1","36.3012433","139.6051891"
"鹿沼店","栃木県鹿沼市西茂呂2丁目23-14","36.5524214","139.7696999"
"宇都宮平松本町店","栃木県宇都宮市平松本町1109-4","36.5447283","139.9039861"
"西那須野店","栃木県那須塩原市下永田1丁目1003-2","36.8826572","139.9976704"
"栃木箱森店","栃木県栃木市箱森町2-44","36.3860714","139.7267925"
"真岡店","栃木県真岡市上高間木3丁目7番6号","36.4369602","139.9864886"
"宇都宮みどり野店","栃木県宇都宮市みどり野町36番20号","36.4946521","139.8606085"
"カインズ伊勢崎店","群馬県伊勢崎市宮子町3154番","36.33449969999999","139.1591153"
"イオンモール高崎店","群馬県高崎市棟高町1400　イオンモール高崎1F","36.390737","139.00645"
"イオンモール太田店","群馬県太田市石原町81　イオンモール太田1F","36.2946812","139.4001265"
"笠懸阿左美店","群馬県みどり市笠懸阿左美176-8","36.3808872","139.3023854"
"前橋住吉店","群馬県前橋市住吉町1丁目15番1号","36.3977112","139.0692662"
"館林店","群馬県館林市富士見町4-52","36.2449868","139.5248026"
"カインズ前橋川曲店","群馬県前橋市川曲町513-1","36.3518053","139.0495055"
"戸田公園店","埼玉県戸田市新曽南三丁目12-17","35.8078307","139.6664514"
"上尾上店","埼玉県上尾市上303-4","35.9957562","139.5747369"
"東川口店","埼玉県川口市戸塚6-2-7","35.8651385","139.7540112"
"新所沢店","埼玉県所沢市緑町3丁目36-20","35.8027345","139.4448788"
"ふじみ野店","埼玉県ふじみ野市ふじみ野3-10-26","35.8598906","139.5158207"
"春日部店","埼玉県春日部市谷原3丁目2-2","35.97163219999999","139.7502538"
"鶴ヶ島店","埼玉県川越市鯨井新田20-54","35.9329827","139.4203557"
"草加店","埼玉県草加市弁天4丁目12-25","35.8427384","139.8194754"
"深谷店","埼玉県熊谷市新堀新田616-1","36.1758519","139.3086678"
"熊谷店","埼玉県熊谷市中央1-326","36.1582227","139.391688"
"久喜店","埼玉県久喜市青毛2-2-14","36.0739054","139.7022764"
"イオンタウン吉川美南店","埼玉県吉川市美南3丁目12","35.86524989999999","139.8565752"
"本庄店","埼玉県本庄市五十子1-1-7","36.2280799","139.1907267"
"浦和松木店","埼玉県さいたま市緑区松木2-7-3","35.8837853","139.6874417"
"ららぽーと富士見店","埼玉県富士見市山室1-1313　1階　15100","35.8597471","139.5483014"
"朝霞台店","埼玉県朝霞市東弁財1丁目7番36号","35.8131612","139.5843697"
"新越谷店","埼玉県越谷市新越谷1丁目14番地3","35.8813198","139.8053149"
"大宮上小町店","埼玉県さいたま市大宮区上小町57-1","35.9060339","139.6087027"
"ららぽーと新三郷店","埼玉県三郷市新三郷ららシティ3-1-1","35.8601478","139.8653829"
"大宮土呂店","埼玉県さいたま市北区土呂町1-63-9","35.9368411","139.6321367"
"戸田公園店","埼玉県戸田市新曽南三丁目12-17","35.8078307","139.6664514"
"上尾上店","埼玉県上尾市上303-4","35.9957562","139.5747369"
"東川口店","埼玉県川口市戸塚6-2-7","35.8651385","139.7540112"
"新所沢店","埼玉県所沢市緑町3丁目36-20","35.8027345","139.4448788"
"ふじみ野店","埼玉県ふじみ野市ふじみ野3-10-26","35.8598906","139.5158207"
"春日部店","埼玉県春日部市谷原3丁目2-2","35.97163219999999","139.7502538"
"鶴ヶ島店","埼玉県川越市鯨井新田20-54","35.9329827","139.4203557"
"草加店","埼玉県草加市弁天4丁目12-25","35.8427384","139.8194754"
"深谷店","埼玉県熊谷市新堀新田616-1","36.1758519","139.3086678"
"熊谷店","埼玉県熊谷市中央1-326","36.1582227","139.391688"
"久喜店","埼玉県久喜市青毛2-2-14","36.0739054","139.7022764"
"イオンタウン吉川美南店","埼玉県吉川市美南3丁目12","35.86524989999999","139.8565752"
"本庄店","埼玉県本庄市五十子1-1-7","36.2280799","139.1907267"
"浦和松木店","埼玉県さいたま市緑区松木2-7-3","35.8837853","139.6874417"
"ららぽーと富士見店","埼玉県富士見市山室1-1313　1階　15100","35.8597471","139.5483014"
"朝霞台店","埼玉県朝霞市東弁財1丁目7番36号","35.8131612","139.5843697"
"新越谷店","埼玉県越谷市新越谷1丁目14番地3","35.8813198","139.8053149"
"大宮上小町店","埼玉県さいたま市大宮区上小町57-1","35.9060339","139.6087027"
"ららぽーと新三郷店","埼玉県三郷市新三郷ららシティ3-1-1","35.8601478","139.8653829"
"大宮土呂店","埼玉県さいたま市北区土呂町1-63-9","35.9368411","139.6321367"
"川口芝店","埼玉県川口市大字芝7229","35.8467092","139.6882649"
"入間扇台店","埼玉県入間市扇台1丁目5番12号","35.8314885","139.3922104"
"南与野店","埼玉県さいたま市中央区鈴谷4-2-1","35.8749828","139.6313135"
"所沢牛沼店","埼玉県所沢市大字牛沼77-1","35.7942144","139.4841089"
"川越仲町店","埼玉県川越市仲町8-3","35.9216844","139.4819797"
"流山おおたかの森店","千葉県流山市西初石6-818-18","35.8684553","139.9272132"
"新浦安店","千葉県浦安市入船1-5-1　MONA新浦安B館2階","35.648895","139.913439"
"イオン南行徳店","千葉県市川市南行徳2-20-25","35.6684987","139.9057749"
"カインズ市原店","千葉県市原市更級3-1-1","35.506253","140.1029602"
"カインズ木更津金田店","千葉県木更津市中島426番地東153街区1画地","35.4319153","139.9349665"
"松戸北小金店","千葉県松戸市小金きよしヶ丘2-2-1","35.83189730000001","139.9342832"
"ＭＥＧＡドン・キホーテ成東店","千葉県山武市成東764-2","35.5960039","140.3992672"
"松戸伊勢丹通店","千葉県松戸市松戸1286-1　北辰ビル2F","35.783294","139.899074"
"千葉ニュータウン店","千葉県印西市泉野1丁目144番6","35.8041965","140.1254333"
"津田沼店","千葉県習志野市津田沼4丁目5番5号","35.6836542","140.0191986"
"八千代村上店","千葉県八千代市村上南5-5-5","35.7205606","140.1192865"
"イオンタウン木更津請西店","千葉県木更津市請西南2-27-1","35.3610295","139.9443445"
"千葉旭店","千葉県旭市二517-3","35.7248944","140.6536653"
"我孫子天王台店","千葉県我孫子市天王台6丁目17番8","35.86637","140.0414575"
"船橋日大前店","千葉県船橋市坪井東2丁目13-21","35.72963319999999","140.0600455"
"成田ニュータウン店","千葉県成田市赤坂3-4","35.7792709","140.2885147"
"松戸常盤平店","千葉県松戸市常盤平6-28-3","35.7937168","139.9567915"
"新松戸駅前店","千葉県松戸市新松戸2-121　新松戸駅前ビル2F","35.8252862","139.9195846"
"船橋芝山店","千葉県船橋市芝山4-17-4","35.7214641","140.0216078"
"ミスターマックスおゆみ野店","千葉県千葉市緑区おゆみ野中央2-3-1　K棟","35.5542373","140.1606058"
"流山おおたかの森店","千葉県流山市西初石6-818-18","35.8684553","139.9272132"
"新浦安店","千葉県浦安市入船1-5-1　MONA新浦安B館2階","35.648895","139.913439"
"イオン南行徳店","千葉県市川市南行徳2-20-25","35.6684987","139.9057749"
"カインズ市原店","千葉県市原市更級3-1-1","35.506253","140.1029602"
"カインズ木更津金田店","千葉県木更津市中島426番地東153街区1画地","35.4319153","139.9349665"
"松戸北小金店","千葉県松戸市小金きよしヶ丘2-2-1","35.83189730000001","139.9342832"
"ＭＥＧＡドン・キホーテ成東店","千葉県山武市成東764-2","35.5960039","140.3992672"
"松戸伊勢丹通店","千葉県松戸市松戸1286-1　北辰ビル2F","35.783294","139.899074"
"千葉ニュータウン店","千葉県印西市泉野1丁目144番6","35.8041965","140.1254333"
"津田沼店","千葉県習志野市津田沼4丁目5番5号","35.6836542","140.0191986"
"八千代村上店","千葉県八千代市村上南5-5-5","35.7205606","140.1192865"
"イオンタウン木更津請西店","千葉県木更津市請西南2-27-1","35.3610295","139.9443445"
"千葉旭店","千葉県旭市二517-3","35.7248944","140.6536653"
"我孫子天王台店","千葉県我孫子市天王台6丁目17番8","35.86637","140.0414575"
"船橋日大前店","千葉県船橋市坪井東2丁目13-21","35.72963319999999","140.0600455"
"成田ニュータウン店","千葉県成田市赤坂3-4","35.7792709","140.2885147"
"松戸常盤平店","千葉県松戸市常盤平6-28-3","35.7937168","139.9567915"
"新松戸駅前店","千葉県松戸市新松戸2-121　新松戸駅前ビル2F","35.8252862","139.9195846"
"船橋芝山店","千葉県船橋市芝山4-17-4","35.7214641","140.0216078"
"ミスターマックスおゆみ野店","千葉県千葉市緑区おゆみ野中央2-3-1　K棟","35.5542373","140.1606058"
"柏モディ店","千葉県柏市柏1-2-26","35.8608412","139.9709788"
"町田鶴川店","東京都町田市能ヶ谷七丁目12-17","35.5903123","139.4789926"
"町田森野店","東京都町田市森野6ｰ4ｰ12","35.5536968","139.4277749"
"本町田店","東京都町田市本町田2721-1","35.5655348","139.4447536"
"下丸子店","東京都大田区下丸子3-2-3","35.572444","139.6843319"
"稲城向陽台店","東京都稲城市向陽台6-10","35.6417197","139.4903453"
"三鷹上連雀店","東京都三鷹市上連雀8-1-5","35.6877819","139.5588647"
"板橋四葉店","東京都板橋区四葉2丁目6-10","35.7802483","139.6514979"
"東村山店","東京都東村山市久米川町4-8-21","35.7606074","139.4697084"
"唐木田店","東京都多摩市鶴牧2-24-1","35.6169611","139.4131577"
"足立竹の塚店","東京都足立区竹の塚5-25-2","35.7968452","139.7947013"
"調布仙川店","東京都調布市仙川町3-4-1","35.6657707","139.5835021"
"池袋西口店","東京都豊島区西池袋1-24-1","35.73183909999999","139.7104886"
"葛飾東水元店","東京都葛飾区東水元3-8-2","35.7855191","139.8654626"
"ダイエー大島店","東京都江東区大島4-6-1　1F","35.688824","139.8289836"
"三軒茶屋店","東京都世田谷区三軒茶屋1-38-8　ステーションプラザロイヤルビル","35.6434206","139.6714423"
"荻窪南口店","東京都杉並区荻窪5-30-6　福村産業荻窪ビル2F","35.7038869","139.6215016"
"ドン・キホーテ新宿店","東京都新宿区大久保1-12-6　2F","35.69902","139.7030075"
"イオン東雲店","東京都江東区東雲1-9-10　イオン東雲店内","35.6486056","139.8021685"
"花小金井店","東京都小平市花小金井3丁目21番4号","35.7373719","139.5133385"
"府中白糸台店","東京都府中市白糸台3-5-3","35.6651975","139.514589"
"町田鶴川店","東京都町田市能ヶ谷七丁目12-17","35.5903123","139.4789926"
"町田森野店","東京都町田市森野6ｰ4ｰ12","35.5536968","139.4277749"
"本町田店","東京都町田市本町田2721-1","35.5655348","139.4447536"
"下丸子店","東京都大田区下丸子3-2-3","35.572444","139.6843319"
"稲城向陽台店","東京都稲城市向陽台6-10","35.6417197","139.4903453"
"三鷹上連雀店","東京都三鷹市上連雀8-1-5","35.6877819","139.5588647"
"板橋四葉店","東京都板橋区四葉2丁目6-10","35.7802483","139.6514979"
"東村山店","東京都東村山市久米川町4-8-21","35.7606074","139.4697084"
"唐木田店","東京都多摩市鶴牧2-24-1","35.6169611","139.4131577"
"足立竹の塚店","東京都足立区竹の塚5-25-2","35.7968452","139.7947013"
"調布仙川店","東京都調布市仙川町3-4-1","35.6657707","139.5835021"
"池袋西口店","東京都豊島区西池袋1-24-1","35.73183909999999","139.7104886"
"葛飾東水元店","東京都葛飾区東水元3-8-2","35.7855191","139.8654626"
"ダイエー大島店","東京都江東区大島4-6-1　1F","35.688824","139.8289836"
"三軒茶屋店","東京都世田谷区三軒茶屋1-38-8　ステーションプラザロイヤルビル","35.6434206","139.6714423"
"荻窪南口店","東京都杉並区荻窪5-30-6　福村産業荻窪ビル2F","35.7038869","139.6215016"
"ドン・キホーテ新宿店","東京都新宿区大久保1-12-6　2F","35.69902","139.7030075"
"イオン東雲店","東京都江東区東雲1-9-10　イオン東雲店内","35.6486056","139.8021685"
"花小金井店","東京都小平市花小金井3丁目21番4号","35.7373719","139.5133385"
"府中白糸台店","東京都府中市白糸台3-5-3","35.6651975","139.514589"
"巣鴨店","東京都豊島区巣鴨3-28-9　桃花源ビル2F","35.7335746","139.7379196"
"吉祥寺ダイヤ街店","東京都武蔵野市吉祥寺本町1-8-2　北辰吉祥寺ビル西館2F","35.7040815","139.5791071"
"丸井錦糸町店","東京都墨田区江東橋3-9-10丸井錦糸町店2階","35.694848","139.8136168"
"国分寺店","東京都国分寺市並木町1丁目19-3","35.7164699","139.457397"
"保谷店","東京都西東京市富士町3-1-19","35.7321684","139.5633178"
"武蔵小山店","東京都品川区荏原3-8ｰ7　ロイヤル武蔵小山2階","35.6175554","139.7066542"
"東小金井店","東京都小金井市梶野町5-2-19","35.7021514","139.5221842"
"青梅店","東京都青梅市新町8丁目26番地2","35.7841307","139.3131541"
"丸井中野店","東京都中野区中野3-34-28　2階","35.7047544","139.665166"
"あきる野店","東京都あきる野市秋川1-6-4","35.729206","139.287784"
"国立北口店","東京都国立市北1丁目5番6号","35.6997913","139.4470179"
"池袋西武前店","東京都豊島区南池袋1-19-6　オリックス池袋ビル2階","35.7278251","139.7123195"
"日野多摩平店","東京都日野市多摩平6-1-8","35.6679126","139.380036"
"成増駅前店","東京都板橋区成増2-15-18　成増プライム2階","35.7770365","139.6320991"
"八王子楢原店","東京都八王子市楢原町1247-3","35.6779768","139.3148748"
"八王子駅北口店","東京都八王子市東町10-31階","35.658041","139.3387121"
"北千住本町センター通り店","東京都足立区千住2-43　染野ビル2F","35.7490391","139.8024347"
"浅草橋駅前店","東京都台東区柳橋1-20-4　深代ビル2F","35.6975238","139.7866606"
"昭島店","東京都昭島市上川原町1丁目10番20号","35.7099855","139.3622224"
"渋谷宮益坂上店","東京都渋谷区渋谷1-6-5　SK青山ビル1･2階","35.6607025","139.7054949"
"町田鶴川店","東京都町田市能ヶ谷七丁目12-17","35.5903123","139.4789926"
"町田森野店","東京都町田市森野6ｰ4ｰ12","35.5536968","139.4277749"
"本町田店","東京都町田市本町田2721-1","35.5655348","139.4447536"
"下丸子店","東京都大田区下丸子3-2-3","35.572444","139.6843319"
"稲城向陽台店","東京都稲城市向陽台6-10","35.6417197","139.4903453"
"三鷹上連雀店","東京都三鷹市上連雀8-1-5","35.6877819","139.5588647"
"板橋四葉店","東京都板橋区四葉2丁目6-10","35.7802483","139.6514979"
"東村山店","東京都東村山市久米川町4-8-21","35.7606074","139.4697084"
"唐木田店","東京都多摩市鶴牧2-24-1","35.6169611","139.4131577"
"足立竹の塚店","東京都足立区竹の塚5-25-2","35.7968452","139.7947013"
"調布仙川店","東京都調布市仙川町3-4-1","35.6657707","139.5835021"
"池袋西口店","東京都豊島区西池袋1-24-1","35.73183909999999","139.7104886"
"葛飾東水元店","東京都葛飾区東水元3-8-2","35.7855191","139.8654626"
"ダイエー大島店","東京都江東区大島4-6-1　1F","35.688824","139.8289836"
"三軒茶屋店","東京都世田谷区三軒茶屋1-38-8　ステーションプラザロイヤルビル","35.6434206","139.6714423"
"荻窪南口店","東京都杉並区荻窪5-30-6　福村産業荻窪ビル2F","35.7038869","139.6215016"
"ドン・キホーテ新宿店","東京都新宿区大久保1-12-6　2F","35.69902","139.7030075"
"イオン東雲店","東京都江東区東雲1-9-10　イオン東雲店内","35.6486056","139.8021685"
"花小金井店","東京都小平市花小金井3丁目21番4号","35.7373719","139.5133385"
"府中白糸台店","東京都府中市白糸台3-5-3","35.6651975","139.514589"
"巣鴨店","東京都豊島区巣鴨3-28-9　桃花源ビル2F","35.7335746","139.7379196"
"吉祥寺ダイヤ街店","東京都武蔵野市吉祥寺本町1-8-2　北辰吉祥寺ビル西館2F","35.7040815","139.5791071"
"丸井錦糸町店","東京都墨田区江東橋3-9-10丸井錦糸町店2階","35.694848","139.8136168"
"国分寺店","東京都国分寺市並木町1丁目19-3","35.7164699","139.457397"
"保谷店","東京都西東京市富士町3-1-19","35.7321684","139.5633178"
"武蔵小山店","東京都品川区荏原3-8ｰ7　ロイヤル武蔵小山2階","35.6175554","139.7066542"
"東小金井店","東京都小金井市梶野町5-2-19","35.7021514","139.5221842"
"青梅店","東京都青梅市新町8丁目26番地2","35.7841307","139.3131541"
"丸井中野店","東京都中野区中野3-34-28　2階","35.7047544","139.665166"
"あきる野店","東京都あきる野市秋川1-6-4","35.729206","139.287784"
"国立北口店","東京都国立市北1丁目5番6号","35.6997913","139.4470179"
"池袋西武前店","東京都豊島区南池袋1-19-6　オリックス池袋ビル2階","35.7278251","139.7123195"
"日野多摩平店","東京都日野市多摩平6-1-8","35.6679126","139.380036"
"成増駅前店","東京都板橋区成増2-15-18　成増プライム2階","35.7770365","139.6320991"
"八王子楢原店","東京都八王子市楢原町1247-3","35.6779768","139.3148748"
"八王子駅北口店","東京都八王子市東町10-31階","35.658041","139.3387121"
"北千住本町センター通り店","東京都足立区千住2-43　染野ビル2F","35.7490391","139.8024347"
"浅草橋駅前店","東京都台東区柳橋1-20-4　深代ビル2F","35.6975238","139.7866606"
"昭島店","東京都昭島市上川原町1丁目10番20号","35.7099855","139.3622224"
"渋谷宮益坂上店","東京都渋谷区渋谷1-6-5　SK青山ビル1･2階","35.6607025","139.7054949"
"アトレ亀戸店","東京都江東区亀戸5-1-1　アトレ亀戸2F","35.6976666","139.8263486"
"大泉学園店","東京都練馬区東大泉1丁目20-24　見蔵ビル2F","35.7507687","139.5889441"
"亀有駅前店","東京都葛飾区亀有3-25-1","35.7666274","139.8480614"
"田端駅前店","東京都北区田端6-1-1　田端ASUKAタワー2階","35.7381031","139.759338"
"新宿靖国通り店","東京都新宿区歌舞伎町1-16-3　セレサ陽栄ビル2F","35.6937419","139.701927"
"新宿御苑前店","東京都新宿区新宿1-10-1　文芸社ビル1F","35.6881087","139.7139154"
"横浜江田店","神奈川県横浜市青葉区荏田北3ｰ5-10","35.560651","139.5502593"
"大和つきみ野店","神奈川県大和市つきみ野町5ｰ17-1","35.51094","139.459162"
"橋本店","神奈川県相模原市緑区橋本8ｰ2-1","35.5983136","139.3374734"
"藤沢湘南台店","神奈川県藤沢市石川1761-5","35.3927039","139.4437223"
"大和下和田店","神奈川県大和市下和田字下ノ原731-1","35.424123","139.468965"
"相模原相生店","神奈川県相模原市中央区相生2-1-5","35.5651789","139.390053"
"平塚田村店","神奈川県平塚市田村6-20-11","35.3787307","139.362071"
"海老名大谷店","神奈川県海老名市大谷808-1","35.4433963","139.390692"
"長津田店","神奈川県横浜市緑区長津田6-4-24","35.5280711","139.4969497"
"厚木妻田店","神奈川県厚木市妻田南1-17-43","35.4537027","139.359778"
"上平塚店","神奈川県平塚市上平塚3-12","35.33344659999999","139.3246813"
"鎌倉深沢店","神奈川県鎌倉市常盤91-5","35.3305406","139.5182556"
"イオン久里浜店","神奈川県横須賀市久里浜5-13-1　イオンショッピングセンター内","35.228827","139.703639"
"横浜中山店","神奈川県横浜市緑区中山町310-5","35.5160565","139.5426663"
"海老名かしわ台店","神奈川県海老名市柏ヶ谷555-1","35.4634883","139.4131484"
"こどもの国店","神奈川県横浜市青葉区奈良町832","35.5540499","139.4901292"
"古淵駅前店","神奈川県相模原市南区古淵1丁目7番3号","35.55587149999999","139.4203478"
"川崎武蔵中原店","神奈川県川崎市中原区上小田中6-15-8","35.5804565","139.6435961"
"瀬谷駅前店","神奈川県横浜市瀬谷区中央1-4","35.4706284","139.4838715"
"横浜西口北幸店","神奈川県横浜市西区北幸2-9-11　相鉄本社ビル1F","35.4662913","139.6148492"
"横浜江田店","神奈川県横浜市青葉区荏田北3ｰ5-10","35.560651","139.5502593"
"大和つきみ野店","神奈川県大和市つきみ野町5ｰ17-1","35.51094","139.459162"
"橋本店","神奈川県相模原市緑区橋本8ｰ2-1","35.5983136","139.3374734"
"藤沢湘南台店","神奈川県藤沢市石川1761-5","35.3927039","139.4437223"
"大和下和田店","神奈川県大和市下和田字下ノ原731-1","35.424123","139.468965"
"相模原相生店","神奈川県相模原市中央区相生2-1-5","35.5651789","139.390053"
"平塚田村店","神奈川県平塚市田村6-20-11","35.3787307","139.362071"
"海老名大谷店","神奈川県海老名市大谷808-1","35.4433963","139.390692"
"長津田店","神奈川県横浜市緑区長津田6-4-24","35.5280711","139.4969497"
"厚木妻田店","神奈川県厚木市妻田南1-17-43","35.4537027","139.359778"
"上平塚店","神奈川県平塚市上平塚3-12","35.33344659999999","139.3246813"
"鎌倉深沢店","神奈川県鎌倉市常盤91-5","35.3305406","139.5182556"
"イオン久里浜店","神奈川県横須賀市久里浜5-13-1　イオンショッピングセンター内","35.228827","139.703639"
"横浜中山店","神奈川県横浜市緑区中山町310-5","35.5160565","139.5426663"
"海老名かしわ台店","神奈川県海老名市柏ヶ谷555-1","35.4634883","139.4131484"
"こどもの国店","神奈川県横浜市青葉区奈良町832","35.5540499","139.4901292"
"古淵駅前店","神奈川県相模原市南区古淵1丁目7番3号","35.55587149999999","139.4203478"
"川崎武蔵中原店","神奈川県川崎市中原区上小田中6-15-8","35.5804565","139.6435961"
"瀬谷駅前店","神奈川県横浜市瀬谷区中央1-4","35.4706284","139.4838715"
"横浜西口北幸店","神奈川県横浜市西区北幸2-9-11　相鉄本社ビル1F","35.4662913","139.6148492"
"向ヶ丘遊園店","神奈川県川崎市多摩区登戸2789","35.6152595","139.5663437"
"寒川店","神奈川県高座郡寒川町宮山95-1","35.3725949","139.3820639"
"藤沢亀井野店","神奈川県藤沢市亀井野2506-1","35.3773125","139.4767537"
"川崎南加瀬店","神奈川県川崎市幸区南加瀬2ｰ30ｰ7","35.5474456","139.6600239"
"秦野店","神奈川県秦野市曽屋1547","35.3792187","139.2149491"
"南鴨宮店","神奈川県小田原市南鴨宮2-41-2","35.2711972","139.1801168"
"大井松田店","神奈川県足柄上郡大井町金子138-1","35.3351563","139.1543271"
"カインズ三浦店","神奈川県三浦市初声町入江字2番地186番1","35.1866283","139.6276547"
"鎌倉小町店","神奈川県鎌倉市小町2丁目2ｰ18　サンオークビル2F","35.3208494","139.5518321"
"横浜元町店","神奈川県横浜市中区元町3丁目119番地　山岡ビル2F","35.4403834","139.6479292"
"横浜中田店","神奈川県横浜市泉区中田西2丁目6番8号","35.4125411","139.5047152"
"横浜鍛冶ヶ谷店","神奈川県横浜市栄区鍛冶ｹ谷1丁目2番3号","35.3663643","139.5596112"
"なぎさモール辻堂店","神奈川県藤沢市辻堂西海岸2丁目11-4","35.3245229","139.441812"
"平塚駅南口店","神奈川県平塚市八重咲町3-33","35.3267696","139.3513738"
"新潟新和店","新潟県新潟市中央区新和1-5-34","37.9018301","139.0393714"
"逢谷内インター店","新潟県新潟市東区逢谷内3-1-45","37.9207974","139.1170921"
"三条店","新潟県三条市下須頃217","37.6425166","138.9404884"
"イオン新潟青山店","新潟県新潟市西区青山2-5-1","37.8962826","139.0048827"
"長岡今朝白店","新潟県長岡市今朝白2丁目5番20号","37.4492733","138.8593345"
"上越店","新潟県上越市下門前1645","37.1548946","138.2544391"
"イオンモール新潟南店","新潟県新潟市江南区下早通柳田1-1-1","37.8760671","139.0812391"
"富山掛尾店","富山県富山市掛尾町26番1","36.6616734","137.2133895"
"イータウンとなみ店","富山県砺波市三島町11番21号","36.6323805","136.9558647"
"高岡中曽根店","富山県高岡市中曽根2310番地","36.76854540000001","137.0801261"
"魚津店","富山県魚津市吉島259-1","36.8242457","137.4156644"
"富山呉羽店","富山県富山市呉羽町草田2425-3","36.7141946","137.161663"
"新高岡店","富山県高岡市二塚414番1","36.7202529","137.0138371"
"金沢松村店","石川県金沢市松村3-358","36.5828662","136.6143934"
"金沢高柳店","石川県金沢市高柳町ﾆ32番地","36.5996285","136.6627283"
"金沢もりの里店","石川県金沢市もりの里1丁目208","36.5488325","136.6897062"
"野々市矢作店","石川県野々市市矢作2丁目47-1","36.5210432","136.6126847"
"小松沖店","石川県小松市沖町区画整理地8街区5","36.3966383","136.467306"
"金沢大学附属病院店","石川県金沢市宝町13ｰ1　金沢大学附属病院内1F","36.5572681","136.6731968"
"金沢武蔵店","石川県金沢市下堤町30　KSビル2階","36.5708834","136.6552964"
"金沢直江店","石川県金沢市直江土地区画整理地24A街区1","36.61342","136.6352129"
"鯖江店","福井県鯖江市神明町3丁目10-20","35.9778222","136.1827707"
"福井二の宮店","福井県福井市二の宮2丁目803番1","36.0844451","136.2262267"
"福井木田橋通り店","福井県福井市木田町1805番","36.0463251","136.2193893"
"武生店","福井県越前市芝原5丁目3-8","35.9207601","136.159022"
"敦賀店","福井県敦賀市呉竹町2丁目5番15号","35.64634150000001","136.0574406"
"小浜店","福井県小浜市駅前町13-6","35.4928489","135.7479827"
"甲府貢川店","山梨県甲府市貢川本町10番7号","35.6546526","138.5518451"
"甲府昭和店","山梨県中巨摩郡昭和町飯喰字村西1105","35.619712","138.52028"
"富士吉田店","山梨県富士吉田市新西原5-5597-16","35.4877046","138.784387"
"石和店","山梨県笛吹市石和町窪中島字北新開町587-19","35.6469157","138.6274382"
"飯田店","長野県飯田市鼎一色190-1","35.5011821","137.8117791"
"松本庄内店","長野県松本市出川1丁目12-1","36.2179466","137.9763429"
"諏訪店","長野県諏訪市四賀赤沼1750番地1","36.018631","138.123726"
"上田緑が丘店","長野県上田市緑が丘1丁目1番6号","36.4107022","138.2525186"
"塩尻広丘店","長野県塩尻市広丘野村1702-3","36.1502096","137.9500975"
"ベイシア佐久平店","長野県佐久市佐久平駅南17-5","36.2754182","138.4666892"
"長野東和田店","長野県長野市東和田508-1","36.6541778","138.2259338"
"伊那ナイスロード店","長野県伊那市上新田2412","35.8293531","137.9645541"
"安曇野豊科店","長野県安曇野市豊科南穂高768-1","36.3038845","137.9128673"
"各務原那加住吉店","岐阜県各務原市那加住吉町4ｰ5","35.3984469","136.8534887"
"多治見住吉店","岐阜県多治見市住吉町6ｰ6","35.3452537","137.1198662"
"岐阜駅東店","岐阜県岐阜市高砂町3ｰ50-11","35.4089584","136.7633955"
"多治見錦町店","岐阜県多治見市錦町2-24","35.329639","137.1271048"
"岐阜茜部店","岐阜県岐阜市六条江東3-1-31","35.3882192","136.747104"
"岐阜柳津店","岐阜県岐阜市柳津町上佐波西1-104","35.3775846","136.7136902"
"岐阜笠松店","岐阜県岐阜市茜部辰新1-60","35.3816229","136.7624442"
"岐阜則武店","岐阜県岐阜市則武中2-24-2","35.4401207","136.7392782"
"岐阜穂積店","岐阜県瑞穂市馬場春雨町1-22","35.41286530000001","136.6869063"
"可児坂戸店","岐阜県可児市坂戸字前田604-1","35.4167372","137.0346161"
"岐阜領下店","岐阜県岐阜市領下1丁目38ｰ1","35.4033619","136.7809497"
"岐阜駅前店","岐阜県岐阜市橋本町3ｰ10","35.411347","136.74825"
"岐阜長良店","岐阜県岐阜市長良東1-3","35.4462897","136.7851758"
"岐阜公園店","岐阜県岐阜市松ヶ枝町6-1","35.4321112","136.7722329"
"大垣南店","岐阜県大垣市築捨町2ｰ29-1","35.3410423","136.6220716"
"恵那長島店","岐阜県恵那市長島町正家2ｰ6-7","35.44871699999999","137.4161524"
"大垣林町店","岐阜県大垣市林町1-1-1","35.3687307","136.6216514"
"美濃加茂店","岐阜県美濃加茂市山手町1-146","35.45006100000001","137.017264"
"中津川店","岐阜県中津川市上金1142-1","35.5036158","137.5097606"
"鵜沼店","岐阜県各務原市鵜沼西町1-409-1","35.4033762","136.9309592"
"各務原那加住吉店","岐阜県各務原市那加住吉町4ｰ5","35.3984469","136.8534887"
"多治見住吉店","岐阜県多治見市住吉町6ｰ6","35.3452537","137.1198662"
"岐阜駅東店","岐阜県岐阜市高砂町3ｰ50-11","35.4089584","136.7633955"
"多治見錦町店","岐阜県多治見市錦町2-24","35.329639","137.1271048"
"岐阜茜部店","岐阜県岐阜市六条江東3-1-31","35.3882192","136.747104"
"岐阜柳津店","岐阜県岐阜市柳津町上佐波西1-104","35.3775846","136.7136902"
"岐阜笠松店","岐阜県岐阜市茜部辰新1-60","35.3816229","136.7624442"
"岐阜則武店","岐阜県岐阜市則武中2-24-2","35.4401207","136.7392782"
"岐阜穂積店","岐阜県瑞穂市馬場春雨町1-22","35.41286530000001","136.6869063"
"可児坂戸店","岐阜県可児市坂戸字前田604-1","35.4167372","137.0346161"
"岐阜領下店","岐阜県岐阜市領下1丁目38ｰ1","35.4033619","136.7809497"
"岐阜駅前店","岐阜県岐阜市橋本町3ｰ10","35.411347","136.74825"
"岐阜長良店","岐阜県岐阜市長良東1-3","35.4462897","136.7851758"
"岐阜公園店","岐阜県岐阜市松ヶ枝町6-1","35.4321112","136.7722329"
"大垣南店","岐阜県大垣市築捨町2ｰ29-1","35.3410423","136.6220716"
"恵那長島店","岐阜県恵那市長島町正家2ｰ6-7","35.44871699999999","137.4161524"
"大垣林町店","岐阜県大垣市林町1-1-1","35.3687307","136.6216514"
"美濃加茂店","岐阜県美濃加茂市山手町1-146","35.45006100000001","137.017264"
"中津川店","岐阜県中津川市上金1142-1","35.5036158","137.5097606"
"鵜沼店","岐阜県各務原市鵜沼西町1-409-1","35.4033762","136.9309592"
"岐阜大学前店","岐阜県岐阜市古市場神田14-1","35.4623283","136.7314088"
"イオンモール各務原店","岐阜県各務原市那加萱場町3-8","35.3917813","136.8244201"
"瑞浪店","岐阜県瑞浪市西小田町5-65","35.3613811","137.2279559"
"土岐下石店","岐阜県土岐市下石町1936-6","35.3237013","137.2026256"
"揖斐大野店","岐阜県揖斐郡大野町大字中之元972-2","35.4680224","136.6165417"
"岐阜関店","岐阜県関市山田字門田77-1","35.4693191","136.8597026"
"郡上八幡店","岐阜県郡上市八幡町島谷1436-2","35.7460242","136.948864"
"関池田店","岐阜県関市小瀬字北池田2352-4","35.495762","136.900835"
"ピュア高山店","岐阜県高山市西之一色町3丁目1195-2","36.1322448","137.2493569"
"可児広見店","岐阜県可児市広見5丁目2-1","35.4233683","137.0616802"
"羽島コスモスポーツプラザ店","岐阜県羽島市福寿町間島1518","35.3327919","136.7014605"
"浜松駅北店","静岡県浜松市中区中央1-5-4","34.7130983","137.7355668"
"浜松領家店","静岡県浜松市中区領家1ｰ2-11","34.6993225","137.7503248"
"浜松原島店","静岡県浜松市東区原島町359-2","34.7322752","137.7714943"
"浜松志都呂店","静岡県浜松市西区西鴨江町646-4","34.6989515","137.665976"
"静岡インター店","静岡県静岡市駿河区緑が丘町2-1","34.9554977","138.3818436"
"浜松三方原店","静岡県浜松市北区三方原町237-1","34.7714743","137.7107997"
"清水インター店","静岡県静岡市清水区八坂西町15-30","35.03314659999999","138.4767643"
"静岡沓谷店","静岡県静岡市葵区沓谷6丁目18-1","34.9968324","138.4121007"
"浜松佐鳴台店","静岡県浜松市中区佐鳴台1丁目4-18","34.70335439999999","137.7027198"
"沼津鳥谷店","静岡県沼津市鳥谷2-1","35.13533210000001","138.8147373"
"焼津インター店","静岡県焼津市八楠四丁目13-1","34.880441","138.3045169"
"藤枝駅南店","静岡県藤枝市前島1-2-1　オーレ藤枝1F","34.8485941","138.2519248"
"浜松浜北店","静岡県浜松市浜北区本沢合118-3","34.8092935","137.8002288"
"東静岡店","静岡県静岡市駿河区曲金六丁目378番1","34.9797318","138.4173119"
"藤枝築地店","静岡県藤枝市築地527-1","34.8594739","138.272571"
"袋井店","静岡県袋井市川井1188-8","34.7465486","137.911339"
"磐田今之浦店","静岡県磐田市今之浦二丁目8-11","34.7174233","137.8617762"
"掛川宮脇店","静岡県掛川市宮脇一丁目15番地の12","34.7795214","138.0280068"
"富士中央店","静岡県富士市永田町2丁目94","35.1634288","138.6693373"
"湖西店","静岡県湖西市新居町中之郷3952","34.7064541","137.5475468"
"浜松駅北店","静岡県浜松市中区中央1-5-4","34.7130983","137.7355668"
"浜松領家店","静岡県浜松市中区領家1ｰ2-11","34.6993225","137.7503248"
"浜松原島店","静岡県浜松市東区原島町359-2","34.7322752","137.7714943"
"浜松志都呂店","静岡県浜松市西区西鴨江町646-4","34.6989515","137.665976"
"静岡インター店","静岡県静岡市駿河区緑が丘町2-1","34.9554977","138.3818436"
"浜松三方原店","静岡県浜松市北区三方原町237-1","34.7714743","137.7107997"
"清水インター店","静岡県静岡市清水区八坂西町15-30","35.03314659999999","138.4767643"
"静岡沓谷店","静岡県静岡市葵区沓谷6丁目18-1","34.9968324","138.4121007"
"浜松佐鳴台店","静岡県浜松市中区佐鳴台1丁目4-18","34.70335439999999","137.7027198"
"沼津鳥谷店","静岡県沼津市鳥谷2-1","35.13533210000001","138.8147373"
"焼津インター店","静岡県焼津市八楠四丁目13-1","34.880441","138.3045169"
"藤枝駅南店","静岡県藤枝市前島1-2-1　オーレ藤枝1F","34.8485941","138.2519248"
"浜松浜北店","静岡県浜松市浜北区本沢合118-3","34.8092935","137.8002288"
"東静岡店","静岡県静岡市駿河区曲金六丁目378番1","34.9797318","138.4173119"
"藤枝築地店","静岡県藤枝市築地527-1","34.8594739","138.272571"
"袋井店","静岡県袋井市川井1188-8","34.7465486","137.911339"
"磐田今之浦店","静岡県磐田市今之浦二丁目8-11","34.7174233","137.8617762"
"掛川宮脇店","静岡県掛川市宮脇一丁目15番地の12","34.7795214","138.0280068"
"富士中央店","静岡県富士市永田町2丁目94","35.1634288","138.6693373"
"湖西店","静岡県湖西市新居町中之郷3952","34.7064541","137.5475468"
"長泉町桜堤店","静岡県駿東郡長泉町上土狩68-27","35.14033380000001","138.9040161"
"裾野店","静岡県裾野市平松529-1","35.1707523","138.9080431"
"富士宮店","静岡県富士宮市三園平687","35.2445954","138.6138654"
"御殿場店","静岡県御殿場市新橋1537-1","35.2994411","138.9386586"
"函南町店","静岡県田方郡函南町間宮437-1","35.0835898","138.9368978"
"島田吉田インター店","静岡県島田市井口826","34.7982406","138.229825"
"牧之原店","静岡県牧之原市細江1347-1","34.7542464","138.2389545"
"沼津カタクラパーク店","静岡県沼津市大岡1020-5","35.1065144","138.8778774"
"清水有東坂店","静岡県静岡市清水区有東坂2丁目364-1","35.0053941","138.4659661"
"本店","愛知県名古屋市瑞穂区上山町3-13","35.1378736","136.9504091"
"高岳店","愛知県名古屋市東区泉2ｰ21-3","35.1760002","136.9147306"
"大磯店","愛知県名古屋市南区大磯通4-15　美谷レジデンス106","35.1057482","136.9263771"
"松風店","愛知県名古屋市昭和区松風町1-7","35.1469632","136.9269053"
"上前津店","愛知県名古屋市中区大須3-31-42","35.1583717","136.9051542"
"東郊通店","愛知県名古屋市昭和区御器所1-3-1","35.14990960000001","136.9187088"
"五女子店","愛知県名古屋市中川区露橋2-25-15","35.1458696","136.8842954"
"豊明店","愛知県豊明市新田町門先8-11","35.0512105","137.0196795"
"刈谷店","愛知県刈谷市井ヶ谷町天白19-4","35.0642102","137.0502039"
"本町店","愛知県名古屋市中区大須2-5-13","35.1617906","136.9018822"
"新栄店","愛知県名古屋市中区新栄1-17-1","35.1661461","136.9189777"
"正木店","愛知県名古屋市中区正木3-1-24","35.1456618","136.8948138"
"平和店","愛知県名古屋市中区平和1-10-10　コスモパレス","35.14842","136.906607"
"道徳店","愛知県名古屋市南区道徳新町5-1　パークテラス道徳1F","35.1047827","136.9058315"
"杁中店","愛知県名古屋市昭和区隼人町6-8　ピアハヤト2F","35.1428189","136.9554281"
"庄内通店","愛知県名古屋市西区庄内通4-1　庄内ハイツ","35.205976","136.891388"
"伏見店","愛知県名古屋市中区丸の内2-1-30　丸の内オフィスフォーラム","35.1764503","136.8969827"
"当知店","愛知県名古屋市港区甚兵衛通1-5-1","35.1068241","136.8463521"
"東海通店","愛知県名古屋市港区九番町5-2　エミールIST1F","35.114341","136.884894"
"浦里店","愛知県名古屋市緑区浦里1-160　グランドハイツ浦里","35.0886781","136.9460207"
"本店","愛知県名古屋市瑞穂区上山町3-13","35.1378736","136.9504091"
"高岳店","愛知県名古屋市東区泉2ｰ21-3","35.1760002","136.9147306"
"大磯店","愛知県名古屋市南区大磯通4-15　美谷レジデンス106","35.1057482","136.9263771"
"松風店","愛知県名古屋市昭和区松風町1-7","35.1469632","136.9269053"
"上前津店","愛知県名古屋市中区大須3-31-42","35.1583717","136.9051542"
"東郊通店","愛知県名古屋市昭和区御器所1-3-1","35.14990960000001","136.9187088"
"五女子店","愛知県名古屋市中川区露橋2-25-15","35.1458696","136.8842954"
"豊明店","愛知県豊明市新田町門先8-11","35.0512105","137.0196795"
"刈谷店","愛知県刈谷市井ヶ谷町天白19-4","35.0642102","137.0502039"
"本町店","愛知県名古屋市中区大須2-5-13","35.1617906","136.9018822"
"新栄店","愛知県名古屋市中区新栄1-17-1","35.1661461","136.9189777"
"正木店","愛知県名古屋市中区正木3-1-24","35.1456618","136.8948138"
"平和店","愛知県名古屋市中区平和1-10-10　コスモパレス","35.14842","136.906607"
"道徳店","愛知県名古屋市南区道徳新町5-1　パークテラス道徳1F","35.1047827","136.9058315"
"杁中店","愛知県名古屋市昭和区隼人町6-8　ピアハヤト2F","35.1428189","136.9554281"
"庄内通店","愛知県名古屋市西区庄内通4-1　庄内ハイツ","35.205976","136.891388"
"伏見店","愛知県名古屋市中区丸の内2-1-30　丸の内オフィスフォーラム","35.1764503","136.8969827"
"当知店","愛知県名古屋市港区甚兵衛通1-5-1","35.1068241","136.8463521"
"東海通店","愛知県名古屋市港区九番町5-2　エミールIST1F","35.114341","136.884894"
"浦里店","愛知県名古屋市緑区浦里1-160　グランドハイツ浦里","35.0886781","136.9460207"
"児玉店","愛知県名古屋市西区児玉町3-5-10","35.1918133","136.8798033"
"弥生店","愛知県名古屋市南区明円町19-6　サンヒルズ秀B棟","35.099968","136.9427399"
"法華店","愛知県名古屋市中川区法華西町1-13","35.1318677","136.8421455"
"野並店","愛知県名古屋市天白区井の森232-1　アイコービル1F","35.1042458","136.9512742"
"中割店","愛知県名古屋市南区中割町3-120-1","35.0876055","136.9195908"
"山手店","愛知県名古屋市昭和区山手通4-15　ペポ山手ビル2F","35.1411875","136.9667344"
"港店","愛知県名古屋市港区名港2-9-27　ポートプラザビル1F","35.0946424","136.8826424"
"城北店","愛知県名古屋市北区八代町2-10-2","35.2018717","136.9109749"
"柴田店","愛知県名古屋市南区柴田町6-19","35.0709686","136.9096478"
"豊田梅坪店","愛知県豊田市梅坪町1-18-1","35.1052393","137.1579698"
"安城店","愛知県安城市朝日町20-20","34.9561087","137.0905016"
"和合店","愛知県愛知郡東郷町和合牛廻間41-4","35.10730210000001","137.0423869"
"尾張旭店","愛知県尾張旭市西大道町原田2525-9","35.2167568","137.0406859"
"伝馬町店","愛知県名古屋市熱田区神宮4-7-27　宝18ビル","35.1206909","136.9116683"
"白雲店","愛知県名古屋市南区白雲町84","35.0955415","136.9403527"
"菅田店","愛知県名古屋市天白区菅田1-2508　インテリジェント野並","35.1126765","136.9635471"
"八田店","愛知県名古屋市中村区並木2-262　フェニックス並木","35.149933","136.8525163"
"春日店","愛知県清須市春日中沼15-1","35.2293446","136.855377"
"都通店","愛知県名古屋市千種区豊年町14-13　クリーンビル1","35.175429","136.938556"
"滝ノ水店","愛知県名古屋市緑区滝の水1-1001","35.0919297","136.9787939"
"本店","愛知県名古屋市瑞穂区上山町3-13","35.1378736","136.9504091"
"高岳店","愛知県名古屋市東区泉2ｰ21-3","35.1760002","136.9147306"
"大磯店","愛知県名古屋市南区大磯通4-15　美谷レジデンス106","35.1057482","136.9263771"
"松風店","愛知県名古屋市昭和区松風町1-7","35.1469632","136.9269053"
"上前津店","愛知県名古屋市中区大須3-31-42","35.1583717","136.9051542"
"東郊通店","愛知県名古屋市昭和区御器所1-3-1","35.14990960000001","136.9187088"
"五女子店","愛知県名古屋市中川区露橋2-25-15","35.1458696","136.8842954"
"豊明店","愛知県豊明市新田町門先8-11","35.0512105","137.0196795"
"刈谷店","愛知県刈谷市井ヶ谷町天白19-4","35.0642102","137.0502039"
"本町店","愛知県名古屋市中区大須2-5-13","35.1617906","136.9018822"
"新栄店","愛知県名古屋市中区新栄1-17-1","35.1661461","136.9189777"
"正木店","愛知県名古屋市中区正木3-1-24","35.1456618","136.8948138"
"平和店","愛知県名古屋市中区平和1-10-10　コスモパレス","35.14842","136.906607"
"道徳店","愛知県名古屋市南区道徳新町5-1　パークテラス道徳1F","35.1047827","136.9058315"
"杁中店","愛知県名古屋市昭和区隼人町6-8　ピアハヤト2F","35.1428189","136.9554281"
"庄内通店","愛知県名古屋市西区庄内通4-1　庄内ハイツ","35.205976","136.891388"
"伏見店","愛知県名古屋市中区丸の内2-1-30　丸の内オフィスフォーラム","35.1764503","136.8969827"
"当知店","愛知県名古屋市港区甚兵衛通1-5-1","35.1068241","136.8463521"
"東海通店","愛知県名古屋市港区九番町5-2　エミールIST1F","35.114341","136.884894"
"浦里店","愛知県名古屋市緑区浦里1-160　グランドハイツ浦里","35.0886781","136.9460207"
"児玉店","愛知県名古屋市西区児玉町3-5-10","35.1918133","136.8798033"
"弥生店","愛知県名古屋市南区明円町19-6　サンヒルズ秀B棟","35.099968","136.9427399"
"法華店","愛知県名古屋市中川区法華西町1-13","35.1318677","136.8421455"
"野並店","愛知県名古屋市天白区井の森232-1　アイコービル1F","35.1042458","136.9512742"
"中割店","愛知県名古屋市南区中割町3-120-1","35.0876055","136.9195908"
"山手店","愛知県名古屋市昭和区山手通4-15　ペポ山手ビル2F","35.1411875","136.9667344"
"港店","愛知県名古屋市港区名港2-9-27　ポートプラザビル1F","35.0946424","136.8826424"
"城北店","愛知県名古屋市北区八代町2-10-2","35.2018717","136.9109749"
"柴田店","愛知県名古屋市南区柴田町6-19","35.0709686","136.9096478"
"豊田梅坪店","愛知県豊田市梅坪町1-18-1","35.1052393","137.1579698"
"安城店","愛知県安城市朝日町20-20","34.9561087","137.0905016"
"和合店","愛知県愛知郡東郷町和合牛廻間41-4","35.10730210000001","137.0423869"
"尾張旭店","愛知県尾張旭市西大道町原田2525-9","35.2167568","137.0406859"
"伝馬町店","愛知県名古屋市熱田区神宮4-7-27　宝18ビル","35.1206909","136.9116683"
"白雲店","愛知県名古屋市南区白雲町84","35.0955415","136.9403527"
"菅田店","愛知県名古屋市天白区菅田1-2508　インテリジェント野並","35.1126765","136.9635471"
"八田店","愛知県名古屋市中村区並木2-262　フェニックス並木","35.149933","136.8525163"
"春日店","愛知県清須市春日中沼15-1","35.2293446","136.855377"
"都通店","愛知県名古屋市千種区豊年町14-13　クリーンビル1","35.175429","136.938556"
"滝ノ水店","愛知県名古屋市緑区滝の水1-1001","35.0919297","136.9787939"
"日比野店","愛知県名古屋市熱田区大宝3-9-8","35.1302777","136.8944978"
"南陽町店","愛知県名古屋市港区八百島2-1803","35.1173137","136.8182297"
"緑黒石店","愛知県名古屋市緑区黒沢台4-707","35.0986824","136.9936506"
"桜台店","愛知県名古屋市南区鳥栖2-1302","35.1097206","136.9381666"
"植田店","愛知県名古屋市天白区植田本町2-1010","35.1326616","136.9917527"
"港楽店","愛知県名古屋市港区港楽1-8-4","35.105631","136.8859363"
"岩塚店","愛知県名古屋市中村区畑江通8-43-1","35.15729810000001","136.8591837"
"西大曽根店","愛知県名古屋市北区大曽根2ｰ7ｰ23　サンハウス大曽根1A","35.1894115","136.9313062"
"松河戸店","愛知県春日井市中切町1-1-5","35.2256754","136.9689857"
"梅森台店","愛知県日進市梅森台1-174","35.1320206","137.0140229"
"春日井上八田店","愛知県春日井市八田町7-3-14","35.2564373","136.9692151"
"吹上店","愛知県名古屋市千種区大久手町6-9","35.1595896","136.9361541"
"大府駅前店","愛知県大府市中央町6-155","35.0088958","136.9641125"
"相生店","愛知県名古屋市天白区境根94番地","35.1051504","136.9744079"
"葵店","愛知県名古屋市東区葵3ｰ12ｰ23","35.1728736","136.931868"
"知立堀切店","愛知県知立市鳥居1-13-9","35.0026487","137.0358645"
"四女子店","愛知県名古屋市中川区好本町1-25-1","35.1430168","136.869625"
"千音寺店","愛知県名古屋市中川区富田町大字千音寺字間渡里2850","35.1582721","136.8125856"
"大畑店","愛知県名古屋市中川区大畑町1-133　ベルハイム大畑","35.1316642","136.8658067"
"甚目寺森店","愛知県あま市森4-2-10","35.211404","136.8106815"
"本店","愛知県名古屋市瑞穂区上山町3-13","35.1378736","136.9504091"
"高岳店","愛知県名古屋市東区泉2ｰ21-3","35.1760002","136.9147306"
"大磯店","愛知県名古屋市南区大磯通4-15　美谷レジデンス106","35.1057482","136.9263771"
"松風店","愛知県名古屋市昭和区松風町1-7","35.1469632","136.9269053"
"上前津店","愛知県名古屋市中区大須3-31-42","35.1583717","136.9051542"
"東郊通店","愛知県名古屋市昭和区御器所1-3-1","35.14990960000001","136.9187088"
"五女子店","愛知県名古屋市中川区露橋2-25-15","35.1458696","136.8842954"
"豊明店","愛知県豊明市新田町門先8-11","35.0512105","137.0196795"
"刈谷店","愛知県刈谷市井ヶ谷町天白19-4","35.0642102","137.0502039"
"本町店","愛知県名古屋市中区大須2-5-13","35.1617906","136.9018822"
"新栄店","愛知県名古屋市中区新栄1-17-1","35.1661461","136.9189777"
"正木店","愛知県名古屋市中区正木3-1-24","35.1456618","136.8948138"
"平和店","愛知県名古屋市中区平和1-10-10　コスモパレス","35.14842","136.906607"
"道徳店","愛知県名古屋市南区道徳新町5-1　パークテラス道徳1F","35.1047827","136.9058315"
"杁中店","愛知県名古屋市昭和区隼人町6-8　ピアハヤト2F","35.1428189","136.9554281"
"庄内通店","愛知県名古屋市西区庄内通4-1　庄内ハイツ","35.205976","136.891388"
"伏見店","愛知県名古屋市中区丸の内2-1-30　丸の内オフィスフォーラム","35.1764503","136.8969827"
"当知店","愛知県名古屋市港区甚兵衛通1-5-1","35.1068241","136.8463521"
"東海通店","愛知県名古屋市港区九番町5-2　エミールIST1F","35.114341","136.884894"
"浦里店","愛知県名古屋市緑区浦里1-160　グランドハイツ浦里","35.0886781","136.9460207"
"児玉店","愛知県名古屋市西区児玉町3-5-10","35.1918133","136.8798033"
"弥生店","愛知県名古屋市南区明円町19-6　サンヒルズ秀B棟","35.099968","136.9427399"
"法華店","愛知県名古屋市中川区法華西町1-13","35.1318677","136.8421455"
"野並店","愛知県名古屋市天白区井の森232-1　アイコービル1F","35.1042458","136.9512742"
"中割店","愛知県名古屋市南区中割町3-120-1","35.0876055","136.9195908"
"山手店","愛知県名古屋市昭和区山手通4-15　ペポ山手ビル2F","35.1411875","136.9667344"
"港店","愛知県名古屋市港区名港2-9-27　ポートプラザビル1F","35.0946424","136.8826424"
"城北店","愛知県名古屋市北区八代町2-10-2","35.2018717","136.9109749"
"柴田店","愛知県名古屋市南区柴田町6-19","35.0709686","136.9096478"
"豊田梅坪店","愛知県豊田市梅坪町1-18-1","35.1052393","137.1579698"
"安城店","愛知県安城市朝日町20-20","34.9561087","137.0905016"
"和合店","愛知県愛知郡東郷町和合牛廻間41-4","35.10730210000001","137.0423869"
"尾張旭店","愛知県尾張旭市西大道町原田2525-9","35.2167568","137.0406859"
"伝馬町店","愛知県名古屋市熱田区神宮4-7-27　宝18ビル","35.1206909","136.9116683"
"白雲店","愛知県名古屋市南区白雲町84","35.0955415","136.9403527"
"菅田店","愛知県名古屋市天白区菅田1-2508　インテリジェント野並","35.1126765","136.9635471"
"八田店","愛知県名古屋市中村区並木2-262　フェニックス並木","35.149933","136.8525163"
"春日店","愛知県清須市春日中沼15-1","35.2293446","136.855377"
"都通店","愛知県名古屋市千種区豊年町14-13　クリーンビル1","35.175429","136.938556"
"滝ノ水店","愛知県名古屋市緑区滝の水1-1001","35.0919297","136.9787939"
"日比野店","愛知県名古屋市熱田区大宝3-9-8","35.1302777","136.8944978"
"南陽町店","愛知県名古屋市港区八百島2-1803","35.1173137","136.8182297"
"緑黒石店","愛知県名古屋市緑区黒沢台4-707","35.0986824","136.9936506"
"桜台店","愛知県名古屋市南区鳥栖2-1302","35.1097206","136.9381666"
"植田店","愛知県名古屋市天白区植田本町2-1010","35.1326616","136.9917527"
"港楽店","愛知県名古屋市港区港楽1-8-4","35.105631","136.8859363"
"岩塚店","愛知県名古屋市中村区畑江通8-43-1","35.15729810000001","136.8591837"
"西大曽根店","愛知県名古屋市北区大曽根2ｰ7ｰ23　サンハウス大曽根1A","35.1894115","136.9313062"
"松河戸店","愛知県春日井市中切町1-1-5","35.2256754","136.9689857"
"梅森台店","愛知県日進市梅森台1-174","35.1320206","137.0140229"
"春日井上八田店","愛知県春日井市八田町7-3-14","35.2564373","136.9692151"
"吹上店","愛知県名古屋市千種区大久手町6-9","35.1595896","136.9361541"
"大府駅前店","愛知県大府市中央町6-155","35.0088958","136.9641125"
"相生店","愛知県名古屋市天白区境根94番地","35.1051504","136.9744079"
"葵店","愛知県名古屋市東区葵3ｰ12ｰ23","35.1728736","136.931868"
"知立堀切店","愛知県知立市鳥居1-13-9","35.0026487","137.0358645"
"四女子店","愛知県名古屋市中川区好本町1-25-1","35.1430168","136.869625"
"千音寺店","愛知県名古屋市中川区富田町大字千音寺字間渡里2850","35.1582721","136.8125856"
"大畑店","愛知県名古屋市中川区大畑町1-133　ベルハイム大畑","35.1316642","136.8658067"
"甚目寺森店","愛知県あま市森4-2-10","35.211404","136.8106815"
"ベルコート店","愛知県尾張旭市狩宿町4-35-1","35.2109775","137.0643032"
"守山城下店","愛知県名古屋市守山区小六町21-12","35.1943749","136.9701866"
"春日井東谷橋店","愛知県春日井市高蔵寺町4-1-10","35.2600464","137.0432466"
"半田宮本店","愛知県半田市宮本町5-303-12","34.8873812","136.9073421"
"平針試験場前店","愛知県名古屋市天白区平針台2ｰ201","35.1061679","137.0062989"
"大府共和店","愛知県大府市共栄町8-13-3","35.0410833","136.9541487"
"恵方店","愛知県名古屋市昭和区阿由知通5-13","35.1457914","136.9340547"
"篭山店","愛知県名古屋市緑区鴻仏目1-605","35.0816227","136.98163"
"豊田挙母店","愛知県豊田市八幡町3-3","35.0797397","137.1626624"
"知多寺本店","愛知県知多市八幡字東水代31-6","34.998","136.8756761"
"安城末広店","愛知県安城市錦町33","34.9539726","137.0831357"
"師勝店","愛知県北名古屋市久地野権現1","35.2369952","136.8966554"
"安井店","愛知県名古屋市北区安井町4-13-25","35.2108685","136.92184"
"上名古屋店","愛知県名古屋市西区上名古屋1-12-5","35.1942054","136.897896"
"如意店","愛知県名古屋市北区如意4-44-3","35.2361377","136.9207616"
"豊田保見店","愛知県豊田市保見町井ノ口72-2","35.1352346","137.1243063"
"前浜店","愛知県名古屋市南区寺部通3-5","35.0929469","136.9295564"
"東郷春木店","愛知県愛知郡東郷町大字春木字新池3917-4","35.0904179","137.0333326"
"高浜店","愛知県高浜市神明町7ｰ1ｰ18","34.9336569","137.0014725"
"大高店","愛知県名古屋市緑区鳴海町下汐田86","35.0719325","136.9393139"
"本店","愛知県名古屋市瑞穂区上山町3-13","35.1378736","136.9504091"
"高岳店","愛知県名古屋市東区泉2ｰ21-3","35.1760002","136.9147306"
"大磯店","愛知県名古屋市南区大磯通4-15　美谷レジデンス106","35.1057482","136.9263771"
"松風店","愛知県名古屋市昭和区松風町1-7","35.1469632","136.9269053"
"上前津店","愛知県名古屋市中区大須3-31-42","35.1583717","136.9051542"
"東郊通店","愛知県名古屋市昭和区御器所1-3-1","35.14990960000001","136.9187088"
"五女子店","愛知県名古屋市中川区露橋2-25-15","35.1458696","136.8842954"
"豊明店","愛知県豊明市新田町門先8-11","35.0512105","137.0196795"
"刈谷店","愛知県刈谷市井ヶ谷町天白19-4","35.0642102","137.0502039"
"本町店","愛知県名古屋市中区大須2-5-13","35.1617906","136.9018822"
"新栄店","愛知県名古屋市中区新栄1-17-1","35.1661461","136.9189777"
"正木店","愛知県名古屋市中区正木3-1-24","35.1456618","136.8948138"
"平和店","愛知県名古屋市中区平和1-10-10　コスモパレス","35.14842","136.906607"
"道徳店","愛知県名古屋市南区道徳新町5-1　パークテラス道徳1F","35.1047827","136.9058315"
"杁中店","愛知県名古屋市昭和区隼人町6-8　ピアハヤト2F","35.1428189","136.9554281"
"庄内通店","愛知県名古屋市西区庄内通4-1　庄内ハイツ","35.205976","136.891388"
"伏見店","愛知県名古屋市中区丸の内2-1-30　丸の内オフィスフォーラム","35.1764503","136.8969827"
"当知店","愛知県名古屋市港区甚兵衛通1-5-1","35.1068241","136.8463521"
"東海通店","愛知県名古屋市港区九番町5-2　エミールIST1F","35.114341","136.884894"
"浦里店","愛知県名古屋市緑区浦里1-160　グランドハイツ浦里","35.0886781","136.9460207"
"児玉店","愛知県名古屋市西区児玉町3-5-10","35.1918133","136.8798033"
"弥生店","愛知県名古屋市南区明円町19-6　サンヒルズ秀B棟","35.099968","136.9427399"
"法華店","愛知県名古屋市中川区法華西町1-13","35.1318677","136.8421455"
"野並店","愛知県名古屋市天白区井の森232-1　アイコービル1F","35.1042458","136.9512742"
"中割店","愛知県名古屋市南区中割町3-120-1","35.0876055","136.9195908"
"山手店","愛知県名古屋市昭和区山手通4-15　ペポ山手ビル2F","35.1411875","136.9667344"
"港店","愛知県名古屋市港区名港2-9-27　ポートプラザビル1F","35.0946424","136.8826424"
"城北店","愛知県名古屋市北区八代町2-10-2","35.2018717","136.9109749"
"柴田店","愛知県名古屋市南区柴田町6-19","35.0709686","136.9096478"
"豊田梅坪店","愛知県豊田市梅坪町1-18-1","35.1052393","137.1579698"
"安城店","愛知県安城市朝日町20-20","34.9561087","137.0905016"
"和合店","愛知県愛知郡東郷町和合牛廻間41-4","35.10730210000001","137.0423869"
"尾張旭店","愛知県尾張旭市西大道町原田2525-9","35.2167568","137.0406859"
"伝馬町店","愛知県名古屋市熱田区神宮4-7-27　宝18ビル","35.1206909","136.9116683"
"白雲店","愛知県名古屋市南区白雲町84","35.0955415","136.9403527"
"菅田店","愛知県名古屋市天白区菅田1-2508　インテリジェント野並","35.1126765","136.9635471"
"八田店","愛知県名古屋市中村区並木2-262　フェニックス並木","35.149933","136.8525163"
"春日店","愛知県清須市春日中沼15-1","35.2293446","136.855377"
"都通店","愛知県名古屋市千種区豊年町14-13　クリーンビル1","35.175429","136.938556"
"滝ノ水店","愛知県名古屋市緑区滝の水1-1001","35.0919297","136.9787939"
"日比野店","愛知県名古屋市熱田区大宝3-9-8","35.1302777","136.8944978"
"南陽町店","愛知県名古屋市港区八百島2-1803","35.1173137","136.8182297"
"緑黒石店","愛知県名古屋市緑区黒沢台4-707","35.0986824","136.9936506"
"桜台店","愛知県名古屋市南区鳥栖2-1302","35.1097206","136.9381666"
"植田店","愛知県名古屋市天白区植田本町2-1010","35.1326616","136.9917527"
"港楽店","愛知県名古屋市港区港楽1-8-4","35.105631","136.8859363"
"岩塚店","愛知県名古屋市中村区畑江通8-43-1","35.15729810000001","136.8591837"
"西大曽根店","愛知県名古屋市北区大曽根2ｰ7ｰ23　サンハウス大曽根1A","35.1894115","136.9313062"
"松河戸店","愛知県春日井市中切町1-1-5","35.2256754","136.9689857"
"梅森台店","愛知県日進市梅森台1-174","35.1320206","137.0140229"
"春日井上八田店","愛知県春日井市八田町7-3-14","35.2564373","136.9692151"
"吹上店","愛知県名古屋市千種区大久手町6-9","35.1595896","136.9361541"
"大府駅前店","愛知県大府市中央町6-155","35.0088958","136.9641125"
"相生店","愛知県名古屋市天白区境根94番地","35.1051504","136.9744079"
"葵店","愛知県名古屋市東区葵3ｰ12ｰ23","35.1728736","136.931868"
"知立堀切店","愛知県知立市鳥居1-13-9","35.0026487","137.0358645"
"四女子店","愛知県名古屋市中川区好本町1-25-1","35.1430168","136.869625"
"千音寺店","愛知県名古屋市中川区富田町大字千音寺字間渡里2850","35.1582721","136.8125856"
"大畑店","愛知県名古屋市中川区大畑町1-133　ベルハイム大畑","35.1316642","136.8658067"
"甚目寺森店","愛知県あま市森4-2-10","35.211404","136.8106815"
"ベルコート店","愛知県尾張旭市狩宿町4-35-1","35.2109775","137.0643032"
"守山城下店","愛知県名古屋市守山区小六町21-12","35.1943749","136.9701866"
"春日井東谷橋店","愛知県春日井市高蔵寺町4-1-10","35.2600464","137.0432466"
"半田宮本店","愛知県半田市宮本町5-303-12","34.8873812","136.9073421"
"平針試験場前店","愛知県名古屋市天白区平針台2ｰ201","35.1061679","137.0062989"
"大府共和店","愛知県大府市共栄町8-13-3","35.0410833","136.9541487"
"恵方店","愛知県名古屋市昭和区阿由知通5-13","35.1457914","136.9340547"
"篭山店","愛知県名古屋市緑区鴻仏目1-605","35.0816227","136.98163"
"豊田挙母店","愛知県豊田市八幡町3-3","35.0797397","137.1626624"
"知多寺本店","愛知県知多市八幡字東水代31-6","34.998","136.8756761"
"安城末広店","愛知県安城市錦町33","34.9539726","137.0831357"
"師勝店","愛知県北名古屋市久地野権現1","35.2369952","136.8966554"
"安井店","愛知県名古屋市北区安井町4-13-25","35.2108685","136.92184"
"上名古屋店","愛知県名古屋市西区上名古屋1-12-5","35.1942054","136.897896"
"如意店","愛知県名古屋市北区如意4-44-3","35.2361377","136.9207616"
"豊田保見店","愛知県豊田市保見町井ノ口72-2","35.1352346","137.1243063"
"前浜店","愛知県名古屋市南区寺部通3-5","35.0929469","136.9295564"
"東郷春木店","愛知県愛知郡東郷町大字春木字新池3917-4","35.0904179","137.0333326"
"高浜店","愛知県高浜市神明町7ｰ1ｰ18","34.9336569","137.0014725"
"大高店","愛知県名古屋市緑区鳴海町下汐田86","35.0719325","136.9393139"
"有松店","愛知県名古屋市緑区桶狭間神明346番地","35.0549933","136.9631314"
"一宮浜町店","愛知県一宮市浜町4-11-1","35.3095591","136.8122759"
"姥子山店","愛知県名古屋市緑区鎌倉台2-1701","35.0712712","136.9844273"
"津島愛宕店","愛知県津島市愛宕町4-25-1","35.1696661","136.7367256"
"半田やなべ店","愛知県半田市岩滑高山町6-22-12","34.9094854","136.9142323"
"清須店","愛知県清須市西市場6-9-23","35.2203423","136.8282102"
"春日井如意申店","愛知県春日井市如意申町6-1-12","35.2457354","136.949903"
"長久手図書館通店","愛知県長久手市西浦812","35.1768538","137.0376994"
"小牧小木店","愛知県小牧市小木西2-246-1","35.2731369","136.8897872"
"守山口店","愛知県名古屋市守山区市場14番16","35.1956047","136.9507129"
"稲沢西店","愛知県稲沢市石橋5ｰ38","35.2592447","136.7789373"
"一宮花池店","愛知県一宮市花池3ｰ11ｰ7","35.2875305","136.7955535"
"西尾今川店","愛知県西尾市今川町馬捨場16","34.85754","137.0613805"
"萱津橋店","愛知県あま市坂牧大塚86","35.1840522","136.8319604"
"豊明前後店","愛知県豊明市前後町螺貝1378-1","35.0591891","136.9895631"
"西尾道光寺店","愛知県西尾市道光寺町堰板37ｰ1","34.8729131","137.0612161"
"佐屋北一色店","愛知県愛西市北一色町北田面273","35.1497493","136.7245917"
"蟹江本町店","愛知県海部郡蟹江町大字蟹江本町字コの割34","35.1386939","136.7982635"
"鳥居通店","愛知県名古屋市中村区鳥居通3-32","35.173885","136.8630437"
"守山区役所前店","愛知県名古屋市守山区小幡中2ｰ23ｰ9　グレース北屋敷","35.2037482","136.9755384"
"本店","愛知県名古屋市瑞穂区上山町3-13","35.1378736","136.9504091"
"高岳店","愛知県名古屋市東区泉2ｰ21-3","35.1760002","136.9147306"
"大磯店","愛知県名古屋市南区大磯通4-15　美谷レジデンス106","35.1057482","136.9263771"
"松風店","愛知県名古屋市昭和区松風町1-7","35.1469632","136.9269053"
"上前津店","愛知県名古屋市中区大須3-31-42","35.1583717","136.9051542"
"東郊通店","愛知県名古屋市昭和区御器所1-3-1","35.14990960000001","136.9187088"
"五女子店","愛知県名古屋市中川区露橋2-25-15","35.1458696","136.8842954"
"豊明店","愛知県豊明市新田町門先8-11","35.0512105","137.0196795"
"刈谷店","愛知県刈谷市井ヶ谷町天白19-4","35.0642102","137.0502039"
"本町店","愛知県名古屋市中区大須2-5-13","35.1617906","136.9018822"
"新栄店","愛知県名古屋市中区新栄1-17-1","35.1661461","136.9189777"
"正木店","愛知県名古屋市中区正木3-1-24","35.1456618","136.8948138"
"平和店","愛知県名古屋市中区平和1-10-10　コスモパレス","35.14842","136.906607"
"道徳店","愛知県名古屋市南区道徳新町5-1　パークテラス道徳1F","35.1047827","136.9058315"
"杁中店","愛知県名古屋市昭和区隼人町6-8　ピアハヤト2F","35.1428189","136.9554281"
"庄内通店","愛知県名古屋市西区庄内通4-1　庄内ハイツ","35.205976","136.891388"
"伏見店","愛知県名古屋市中区丸の内2-1-30　丸の内オフィスフォーラム","35.1764503","136.8969827"
"当知店","愛知県名古屋市港区甚兵衛通1-5-1","35.1068241","136.8463521"
"東海通店","愛知県名古屋市港区九番町5-2　エミールIST1F","35.114341","136.884894"
"浦里店","愛知県名古屋市緑区浦里1-160　グランドハイツ浦里","35.0886781","136.9460207"
"児玉店","愛知県名古屋市西区児玉町3-5-10","35.1918133","136.8798033"
"弥生店","愛知県名古屋市南区明円町19-6　サンヒルズ秀B棟","35.099968","136.9427399"
"法華店","愛知県名古屋市中川区法華西町1-13","35.1318677","136.8421455"
"野並店","愛知県名古屋市天白区井の森232-1　アイコービル1F","35.1042458","136.9512742"
"中割店","愛知県名古屋市南区中割町3-120-1","35.0876055","136.9195908"
"山手店","愛知県名古屋市昭和区山手通4-15　ペポ山手ビル2F","35.1411875","136.9667344"
"港店","愛知県名古屋市港区名港2-9-27　ポートプラザビル1F","35.0946424","136.8826424"
"城北店","愛知県名古屋市北区八代町2-10-2","35.2018717","136.9109749"
"柴田店","愛知県名古屋市南区柴田町6-19","35.0709686","136.9096478"
"豊田梅坪店","愛知県豊田市梅坪町1-18-1","35.1052393","137.1579698"
"安城店","愛知県安城市朝日町20-20","34.9561087","137.0905016"
"和合店","愛知県愛知郡東郷町和合牛廻間41-4","35.10730210000001","137.0423869"
"尾張旭店","愛知県尾張旭市西大道町原田2525-9","35.2167568","137.0406859"
"伝馬町店","愛知県名古屋市熱田区神宮4-7-27　宝18ビル","35.1206909","136.9116683"
"白雲店","愛知県名古屋市南区白雲町84","35.0955415","136.9403527"
"菅田店","愛知県名古屋市天白区菅田1-2508　インテリジェント野並","35.1126765","136.9635471"
"八田店","愛知県名古屋市中村区並木2-262　フェニックス並木","35.149933","136.8525163"
"春日店","愛知県清須市春日中沼15-1","35.2293446","136.855377"
"都通店","愛知県名古屋市千種区豊年町14-13　クリーンビル1","35.175429","136.938556"
"滝ノ水店","愛知県名古屋市緑区滝の水1-1001","35.0919297","136.9787939"
"日比野店","愛知県名古屋市熱田区大宝3-9-8","35.1302777","136.8944978"
"南陽町店","愛知県名古屋市港区八百島2-1803","35.1173137","136.8182297"
"緑黒石店","愛知県名古屋市緑区黒沢台4-707","35.0986824","136.9936506"
"桜台店","愛知県名古屋市南区鳥栖2-1302","35.1097206","136.9381666"
"植田店","愛知県名古屋市天白区植田本町2-1010","35.1326616","136.9917527"
"港楽店","愛知県名古屋市港区港楽1-8-4","35.105631","136.8859363"
"岩塚店","愛知県名古屋市中村区畑江通8-43-1","35.15729810000001","136.8591837"
"西大曽根店","愛知県名古屋市北区大曽根2ｰ7ｰ23　サンハウス大曽根1A","35.1894115","136.9313062"
"松河戸店","愛知県春日井市中切町1-1-5","35.2256754","136.9689857"
"梅森台店","愛知県日進市梅森台1-174","35.1320206","137.0140229"
"春日井上八田店","愛知県春日井市八田町7-3-14","35.2564373","136.9692151"
"吹上店","愛知県名古屋市千種区大久手町6-9","35.1595896","136.9361541"
"大府駅前店","愛知県大府市中央町6-155","35.0088958","136.9641125"
"相生店","愛知県名古屋市天白区境根94番地","35.1051504","136.9744079"
"葵店","愛知県名古屋市東区葵3ｰ12ｰ23","35.1728736","136.931868"
"知立堀切店","愛知県知立市鳥居1-13-9","35.0026487","137.0358645"
"四女子店","愛知県名古屋市中川区好本町1-25-1","35.1430168","136.869625"
"千音寺店","愛知県名古屋市中川区富田町大字千音寺字間渡里2850","35.1582721","136.8125856"
"大畑店","愛知県名古屋市中川区大畑町1-133　ベルハイム大畑","35.1316642","136.8658067"
"甚目寺森店","愛知県あま市森4-2-10","35.211404","136.8106815"
"ベルコート店","愛知県尾張旭市狩宿町4-35-1","35.2109775","137.0643032"
"守山城下店","愛知県名古屋市守山区小六町21-12","35.1943749","136.9701866"
"春日井東谷橋店","愛知県春日井市高蔵寺町4-1-10","35.2600464","137.0432466"
"半田宮本店","愛知県半田市宮本町5-303-12","34.8873812","136.9073421"
"平針試験場前店","愛知県名古屋市天白区平針台2ｰ201","35.1061679","137.0062989"
"大府共和店","愛知県大府市共栄町8-13-3","35.0410833","136.9541487"
"恵方店","愛知県名古屋市昭和区阿由知通5-13","35.1457914","136.9340547"
"篭山店","愛知県名古屋市緑区鴻仏目1-605","35.0816227","136.98163"
"豊田挙母店","愛知県豊田市八幡町3-3","35.0797397","137.1626624"
"知多寺本店","愛知県知多市八幡字東水代31-6","34.998","136.8756761"
"安城末広店","愛知県安城市錦町33","34.9539726","137.0831357"
"師勝店","愛知県北名古屋市久地野権現1","35.2369952","136.8966554"
"安井店","愛知県名古屋市北区安井町4-13-25","35.2108685","136.92184"
"上名古屋店","愛知県名古屋市西区上名古屋1-12-5","35.1942054","136.897896"
"如意店","愛知県名古屋市北区如意4-44-3","35.2361377","136.9207616"
"豊田保見店","愛知県豊田市保見町井ノ口72-2","35.1352346","137.1243063"
"前浜店","愛知県名古屋市南区寺部通3-5","35.0929469","136.9295564"
"東郷春木店","愛知県愛知郡東郷町大字春木字新池3917-4","35.0904179","137.0333326"
"高浜店","愛知県高浜市神明町7ｰ1ｰ18","34.9336569","137.0014725"
"大高店","愛知県名古屋市緑区鳴海町下汐田86","35.0719325","136.9393139"
"有松店","愛知県名古屋市緑区桶狭間神明346番地","35.0549933","136.9631314"
"一宮浜町店","愛知県一宮市浜町4-11-1","35.3095591","136.8122759"
"姥子山店","愛知県名古屋市緑区鎌倉台2-1701","35.0712712","136.9844273"
"津島愛宕店","愛知県津島市愛宕町4-25-1","35.1696661","136.7367256"
"半田やなべ店","愛知県半田市岩滑高山町6-22-12","34.9094854","136.9142323"
"清須店","愛知県清須市西市場6-9-23","35.2203423","136.8282102"
"春日井如意申店","愛知県春日井市如意申町6-1-12","35.2457354","136.949903"
"長久手図書館通店","愛知県長久手市西浦812","35.1768538","137.0376994"
"小牧小木店","愛知県小牧市小木西2-246-1","35.2731369","136.8897872"
"守山口店","愛知県名古屋市守山区市場14番16","35.1956047","136.9507129"
"稲沢西店","愛知県稲沢市石橋5ｰ38","35.2592447","136.7789373"
"一宮花池店","愛知県一宮市花池3ｰ11ｰ7","35.2875305","136.7955535"
"西尾今川店","愛知県西尾市今川町馬捨場16","34.85754","137.0613805"
"萱津橋店","愛知県あま市坂牧大塚86","35.1840522","136.8319604"
"豊明前後店","愛知県豊明市前後町螺貝1378-1","35.0591891","136.9895631"
"西尾道光寺店","愛知県西尾市道光寺町堰板37ｰ1","34.8729131","137.0612161"
"佐屋北一色店","愛知県愛西市北一色町北田面273","35.1497493","136.7245917"
"蟹江本町店","愛知県海部郡蟹江町大字蟹江本町字コの割34","35.1386939","136.7982635"
"鳥居通店","愛知県名古屋市中村区鳥居通3-32","35.173885","136.8630437"
"守山区役所前店","愛知県名古屋市守山区小幡中2ｰ23ｰ9　グレース北屋敷","35.2037482","136.9755384"
"名東藤森店","愛知県名古屋市名東区藤森1ｰ6-1","35.181208","137.0083694"
"東海荒尾店","愛知県東海市荒尾町祢崎106","35.029342","136.9140614"
"守山八剣店","愛知県名古屋市守山区元郷2ｰ802","35.2028968","137.0008834"
"小牧岩崎店","愛知県小牧市岩崎1995","35.3097252","136.9296685"
"岡崎大西店","愛知県岡崎市大西2丁目1-6","34.9427494","137.1849454"
"一宮小信店","愛知県一宮市小信中島字川東14-1","35.3115194","136.7483909"
"岡崎若松店","愛知県岡崎市若松町字横手16-1","34.9135487","137.1637403"
"津島神守店","愛知県津島市越津町字柳之内93","35.1765271","136.7649923"
"東浦店","愛知県知多郡東浦町大字生路字池下5","34.9515123","136.9705136"
"一宮開明店","愛知県一宮市開明字郷東20ｰ1","35.3153412","136.7714414"
"忠次店","愛知県名古屋市南区忠次2-1-1","35.102601","136.9184992"
"桃花台店","愛知県小牧市高根2ｰ189-5","35.2936089","136.9773568"
"一宮森本店","愛知県一宮市森本1ｰ22-5","35.2942081","136.8158732"
"小牧中央店","愛知県小牧市中央6-332","35.2842642","136.9361385"
"刈谷稲場店","愛知県刈谷市稲場町1ｰ121","35.004414","136.9976207"
"刈谷司店","愛知県刈谷市司町1ｰ37","34.9848694","136.988161"
"津島高台寺店","愛知県津島市高台寺字茶木原41-4","35.1586992","136.7727702"
"守山白沢店","愛知県名古屋市守山区川村町365","35.2134275","136.9688083"
"弥富東店","愛知県弥富市大字鯏浦字車東1-2","35.1148266","136.740107"
"扶桑伊勢帰店","愛知県丹羽郡扶桑町大字高雄字伊勢帰128-2","35.3655833","136.9206307"
"本店","愛知県名古屋市瑞穂区上山町3-13","35.1378736","136.9504091"
"高岳店","愛知県名古屋市東区泉2ｰ21-3","35.1760002","136.9147306"
"大磯店","愛知県名古屋市南区大磯通4-15　美谷レジデンス106","35.1057482","136.9263771"
"松風店","愛知県名古屋市昭和区松風町1-7","35.1469632","136.9269053"
"上前津店","愛知県名古屋市中区大須3-31-42","35.1583717","136.9051542"
"東郊通店","愛知県名古屋市昭和区御器所1-3-1","35.14990960000001","136.9187088"
"五女子店","愛知県名古屋市中川区露橋2-25-15","35.1458696","136.8842954"
"豊明店","愛知県豊明市新田町門先8-11","35.0512105","137.0196795"
"刈谷店","愛知県刈谷市井ヶ谷町天白19-4","35.0642102","137.0502039"
"本町店","愛知県名古屋市中区大須2-5-13","35.1617906","136.9018822"
"新栄店","愛知県名古屋市中区新栄1-17-1","35.1661461","136.9189777"
"正木店","愛知県名古屋市中区正木3-1-24","35.1456618","136.8948138"
"平和店","愛知県名古屋市中区平和1-10-10　コスモパレス","35.14842","136.906607"
"道徳店","愛知県名古屋市南区道徳新町5-1　パークテラス道徳1F","35.1047827","136.9058315"
"杁中店","愛知県名古屋市昭和区隼人町6-8　ピアハヤト2F","35.1428189","136.9554281"
"庄内通店","愛知県名古屋市西区庄内通4-1　庄内ハイツ","35.205976","136.891388"
"伏見店","愛知県名古屋市中区丸の内2-1-30　丸の内オフィスフォーラム","35.1764503","136.8969827"
"当知店","愛知県名古屋市港区甚兵衛通1-5-1","35.1068241","136.8463521"
"東海通店","愛知県名古屋市港区九番町5-2　エミールIST1F","35.114341","136.884894"
"浦里店","愛知県名古屋市緑区浦里1-160　グランドハイツ浦里","35.0886781","136.9460207"
"児玉店","愛知県名古屋市西区児玉町3-5-10","35.1918133","136.8798033"
"弥生店","愛知県名古屋市南区明円町19-6　サンヒルズ秀B棟","35.099968","136.9427399"
"法華店","愛知県名古屋市中川区法華西町1-13","35.1318677","136.8421455"
"野並店","愛知県名古屋市天白区井の森232-1　アイコービル1F","35.1042458","136.9512742"
"中割店","愛知県名古屋市南区中割町3-120-1","35.0876055","136.9195908"
"山手店","愛知県名古屋市昭和区山手通4-15　ペポ山手ビル2F","35.1411875","136.9667344"
"港店","愛知県名古屋市港区名港2-9-27　ポートプラザビル1F","35.0946424","136.8826424"
"城北店","愛知県名古屋市北区八代町2-10-2","35.2018717","136.9109749"
"柴田店","愛知県名古屋市南区柴田町6-19","35.0709686","136.9096478"
"豊田梅坪店","愛知県豊田市梅坪町1-18-1","35.1052393","137.1579698"
"安城店","愛知県安城市朝日町20-20","34.9561087","137.0905016"
"和合店","愛知県愛知郡東郷町和合牛廻間41-4","35.10730210000001","137.0423869"
"尾張旭店","愛知県尾張旭市西大道町原田2525-9","35.2167568","137.0406859"
"伝馬町店","愛知県名古屋市熱田区神宮4-7-27　宝18ビル","35.1206909","136.9116683"
"白雲店","愛知県名古屋市南区白雲町84","35.0955415","136.9403527"
"菅田店","愛知県名古屋市天白区菅田1-2508　インテリジェント野並","35.1126765","136.9635471"
"八田店","愛知県名古屋市中村区並木2-262　フェニックス並木","35.149933","136.8525163"
"春日店","愛知県清須市春日中沼15-1","35.2293446","136.855377"
"都通店","愛知県名古屋市千種区豊年町14-13　クリーンビル1","35.175429","136.938556"
"滝ノ水店","愛知県名古屋市緑区滝の水1-1001","35.0919297","136.9787939"
"日比野店","愛知県名古屋市熱田区大宝3-9-8","35.1302777","136.8944978"
"南陽町店","愛知県名古屋市港区八百島2-1803","35.1173137","136.8182297"
"緑黒石店","愛知県名古屋市緑区黒沢台4-707","35.0986824","136.9936506"
"桜台店","愛知県名古屋市南区鳥栖2-1302","35.1097206","136.9381666"
"植田店","愛知県名古屋市天白区植田本町2-1010","35.1326616","136.9917527"
"港楽店","愛知県名古屋市港区港楽1-8-4","35.105631","136.8859363"
"岩塚店","愛知県名古屋市中村区畑江通8-43-1","35.15729810000001","136.8591837"
"西大曽根店","愛知県名古屋市北区大曽根2ｰ7ｰ23　サンハウス大曽根1A","35.1894115","136.9313062"
"松河戸店","愛知県春日井市中切町1-1-5","35.2256754","136.9689857"
"梅森台店","愛知県日進市梅森台1-174","35.1320206","137.0140229"
"春日井上八田店","愛知県春日井市八田町7-3-14","35.2564373","136.9692151"
"吹上店","愛知県名古屋市千種区大久手町6-9","35.1595896","136.9361541"
"大府駅前店","愛知県大府市中央町6-155","35.0088958","136.9641125"
"相生店","愛知県名古屋市天白区境根94番地","35.1051504","136.9744079"
"葵店","愛知県名古屋市東区葵3ｰ12ｰ23","35.1728736","136.931868"
"知立堀切店","愛知県知立市鳥居1-13-9","35.0026487","137.0358645"
"四女子店","愛知県名古屋市中川区好本町1-25-1","35.1430168","136.869625"
"千音寺店","愛知県名古屋市中川区富田町大字千音寺字間渡里2850","35.1582721","136.8125856"
"大畑店","愛知県名古屋市中川区大畑町1-133　ベルハイム大畑","35.1316642","136.8658067"
"甚目寺森店","愛知県あま市森4-2-10","35.211404","136.8106815"
"ベルコート店","愛知県尾張旭市狩宿町4-35-1","35.2109775","137.0643032"
"守山城下店","愛知県名古屋市守山区小六町21-12","35.1943749","136.9701866"
"春日井東谷橋店","愛知県春日井市高蔵寺町4-1-10","35.2600464","137.0432466"
"半田宮本店","愛知県半田市宮本町5-303-12","34.8873812","136.9073421"
"平針試験場前店","愛知県名古屋市天白区平針台2ｰ201","35.1061679","137.0062989"
"大府共和店","愛知県大府市共栄町8-13-3","35.0410833","136.9541487"
"恵方店","愛知県名古屋市昭和区阿由知通5-13","35.1457914","136.9340547"
"篭山店","愛知県名古屋市緑区鴻仏目1-605","35.0816227","136.98163"
"豊田挙母店","愛知県豊田市八幡町3-3","35.0797397","137.1626624"
"知多寺本店","愛知県知多市八幡字東水代31-6","34.998","136.8756761"
"安城末広店","愛知県安城市錦町33","34.9539726","137.0831357"
"師勝店","愛知県北名古屋市久地野権現1","35.2369952","136.8966554"
"安井店","愛知県名古屋市北区安井町4-13-25","35.2108685","136.92184"
"上名古屋店","愛知県名古屋市西区上名古屋1-12-5","35.1942054","136.897896"
"如意店","愛知県名古屋市北区如意4-44-3","35.2361377","136.9207616"
"豊田保見店","愛知県豊田市保見町井ノ口72-2","35.1352346","137.1243063"
"前浜店","愛知県名古屋市南区寺部通3-5","35.0929469","136.9295564"
"東郷春木店","愛知県愛知郡東郷町大字春木字新池3917-4","35.0904179","137.0333326"
"高浜店","愛知県高浜市神明町7ｰ1ｰ18","34.9336569","137.0014725"
"大高店","愛知県名古屋市緑区鳴海町下汐田86","35.0719325","136.9393139"
"有松店","愛知県名古屋市緑区桶狭間神明346番地","35.0549933","136.9631314"
"一宮浜町店","愛知県一宮市浜町4-11-1","35.3095591","136.8122759"
"姥子山店","愛知県名古屋市緑区鎌倉台2-1701","35.0712712","136.9844273"
"津島愛宕店","愛知県津島市愛宕町4-25-1","35.1696661","136.7367256"
"半田やなべ店","愛知県半田市岩滑高山町6-22-12","34.9094854","136.9142323"
"清須店","愛知県清須市西市場6-9-23","35.2203423","136.8282102"
"春日井如意申店","愛知県春日井市如意申町6-1-12","35.2457354","136.949903"
"長久手図書館通店","愛知県長久手市西浦812","35.1768538","137.0376994"
"小牧小木店","愛知県小牧市小木西2-246-1","35.2731369","136.8897872"
"守山口店","愛知県名古屋市守山区市場14番16","35.1956047","136.9507129"
"稲沢西店","愛知県稲沢市石橋5ｰ38","35.2592447","136.7789373"
"一宮花池店","愛知県一宮市花池3ｰ11ｰ7","35.2875305","136.7955535"
"西尾今川店","愛知県西尾市今川町馬捨場16","34.85754","137.0613805"
"萱津橋店","愛知県あま市坂牧大塚86","35.1840522","136.8319604"
"豊明前後店","愛知県豊明市前後町螺貝1378-1","35.0591891","136.9895631"
"西尾道光寺店","愛知県西尾市道光寺町堰板37ｰ1","34.8729131","137.0612161"
"佐屋北一色店","愛知県愛西市北一色町北田面273","35.1497493","136.7245917"
"蟹江本町店","愛知県海部郡蟹江町大字蟹江本町字コの割34","35.1386939","136.7982635"
"鳥居通店","愛知県名古屋市中村区鳥居通3-32","35.173885","136.8630437"
"守山区役所前店","愛知県名古屋市守山区小幡中2ｰ23ｰ9　グレース北屋敷","35.2037482","136.9755384"
"名東藤森店","愛知県名古屋市名東区藤森1ｰ6-1","35.181208","137.0083694"
"東海荒尾店","愛知県東海市荒尾町祢崎106","35.029342","136.9140614"
"守山八剣店","愛知県名古屋市守山区元郷2ｰ802","35.2028968","137.0008834"
"小牧岩崎店","愛知県小牧市岩崎1995","35.3097252","136.9296685"
"岡崎大西店","愛知県岡崎市大西2丁目1-6","34.9427494","137.1849454"
"一宮小信店","愛知県一宮市小信中島字川東14-1","35.3115194","136.7483909"
"岡崎若松店","愛知県岡崎市若松町字横手16-1","34.9135487","137.1637403"
"津島神守店","愛知県津島市越津町字柳之内93","35.1765271","136.7649923"
"東浦店","愛知県知多郡東浦町大字生路字池下5","34.9515123","136.9705136"
"一宮開明店","愛知県一宮市開明字郷東20ｰ1","35.3153412","136.7714414"
"忠次店","愛知県名古屋市南区忠次2-1-1","35.102601","136.9184992"
"桃花台店","愛知県小牧市高根2ｰ189-5","35.2936089","136.9773568"
"一宮森本店","愛知県一宮市森本1ｰ22-5","35.2942081","136.8158732"
"小牧中央店","愛知県小牧市中央6-332","35.2842642","136.9361385"
"刈谷稲場店","愛知県刈谷市稲場町1ｰ121","35.004414","136.9976207"
"刈谷司店","愛知県刈谷市司町1ｰ37","34.9848694","136.988161"
"津島高台寺店","愛知県津島市高台寺字茶木原41-4","35.1586992","136.7727702"
"守山白沢店","愛知県名古屋市守山区川村町365","35.2134275","136.9688083"
"弥富東店","愛知県弥富市大字鯏浦字車東1-2","35.1148266","136.740107"
"扶桑伊勢帰店","愛知県丹羽郡扶桑町大字高雄字伊勢帰128-2","35.3655833","136.9206307"
"岡崎上和田店","愛知県岡崎市天白町字東池25-1","34.933613","137.1454687"
"砂田橋店","愛知県名古屋市東区大幸4丁目16番1号","35.1890753","136.9540877"
"瑞穂運動場店","愛知県名古屋市瑞穂区田辺通6ｰ43","35.1206338","136.9480209"
"刈谷駅南口店","愛知県刈谷市南桜町1ｰ29","34.9909744","137.0070841"
"大府インター店","愛知県大府市宮内町4-378","35.0053311","136.9236893"
"豊橋藤沢店","愛知県豊橋市小浜町11","34.7403716","137.3657972"
"豊田前田店","愛知県豊田市前田町6-39-1","35.0636332","137.1635297"
"安城今村店","愛知県安城市今本町4ｰ1-6","34.9926368","137.0793912"
"江南西店","愛知県江南市東野町米野85","35.3360886","136.85909"
"栄鉄砲町店","愛知県名古屋市中区栄2ｰ14-6","35.1663178","136.9022042"
"瀬戸山口店","愛知県瀬戸市今林町395","35.2004777","137.0927432"
"大治店","愛知県海部郡大治町大字馬島字大門西48","35.1729201","136.8194088"
"半田瑞穂店","愛知県半田市瑞穂町7ｰ11-2","34.8851574","136.9405526"
"名東山の手店","愛知県名古屋市名東区山の手3ｰ901","35.1861959","136.9947988"
"岩倉八剱店","愛知県岩倉市八剱町下り松36","35.2929178","136.8799291"
"富士見橋店","愛知県名古屋市中区千代田4-1-29","35.1554919","136.9126564"
"阿久比店","愛知県知多郡阿久比町大字白沢天神前39-1","34.9543577","136.9142062"
"豊橋下地店","愛知県豊橋市下地字操穴32","34.7879077","137.3886021"
"犬山五郎丸店","愛知県犬山市大字五郎丸字上前田23","35.3662105","136.9429836"
"錦東櫻店","愛知県名古屋市東区東桜2ｰ15ｰ20　光ビル1F","35.1707984","136.9168803"
"本店","愛知県名古屋市瑞穂区上山町3-13","35.1378736","136.9504091"
"高岳店","愛知県名古屋市東区泉2ｰ21-3","35.1760002","136.9147306"
"大磯店","愛知県名古屋市南区大磯通4-15　美谷レジデンス106","35.1057482","136.9263771"
"松風店","愛知県名古屋市昭和区松風町1-7","35.1469632","136.9269053"
"上前津店","愛知県名古屋市中区大須3-31-42","35.1583717","136.9051542"
"東郊通店","愛知県名古屋市昭和区御器所1-3-1","35.14990960000001","136.9187088"
"五女子店","愛知県名古屋市中川区露橋2-25-15","35.1458696","136.8842954"
"豊明店","愛知県豊明市新田町門先8-11","35.0512105","137.0196795"
"刈谷店","愛知県刈谷市井ヶ谷町天白19-4","35.0642102","137.0502039"
"本町店","愛知県名古屋市中区大須2-5-13","35.1617906","136.9018822"
"新栄店","愛知県名古屋市中区新栄1-17-1","35.1661461","136.9189777"
"正木店","愛知県名古屋市中区正木3-1-24","35.1456618","136.8948138"
"平和店","愛知県名古屋市中区平和1-10-10　コスモパレス","35.14842","136.906607"
"道徳店","愛知県名古屋市南区道徳新町5-1　パークテラス道徳1F","35.1047827","136.9058315"
"杁中店","愛知県名古屋市昭和区隼人町6-8　ピアハヤト2F","35.1428189","136.9554281"
"庄内通店","愛知県名古屋市西区庄内通4-1　庄内ハイツ","35.205976","136.891388"
"伏見店","愛知県名古屋市中区丸の内2-1-30　丸の内オフィスフォーラム","35.1764503","136.8969827"
"当知店","愛知県名古屋市港区甚兵衛通1-5-1","35.1068241","136.8463521"
"東海通店","愛知県名古屋市港区九番町5-2　エミールIST1F","35.114341","136.884894"
"浦里店","愛知県名古屋市緑区浦里1-160　グランドハイツ浦里","35.0886781","136.9460207"
"児玉店","愛知県名古屋市西区児玉町3-5-10","35.1918133","136.8798033"
"弥生店","愛知県名古屋市南区明円町19-6　サンヒルズ秀B棟","35.099968","136.9427399"
"法華店","愛知県名古屋市中川区法華西町1-13","35.1318677","136.8421455"
"野並店","愛知県名古屋市天白区井の森232-1　アイコービル1F","35.1042458","136.9512742"
"中割店","愛知県名古屋市南区中割町3-120-1","35.0876055","136.9195908"
"山手店","愛知県名古屋市昭和区山手通4-15　ペポ山手ビル2F","35.1411875","136.9667344"
"港店","愛知県名古屋市港区名港2-9-27　ポートプラザビル1F","35.0946424","136.8826424"
"城北店","愛知県名古屋市北区八代町2-10-2","35.2018717","136.9109749"
"柴田店","愛知県名古屋市南区柴田町6-19","35.0709686","136.9096478"
"豊田梅坪店","愛知県豊田市梅坪町1-18-1","35.1052393","137.1579698"
"安城店","愛知県安城市朝日町20-20","34.9561087","137.0905016"
"和合店","愛知県愛知郡東郷町和合牛廻間41-4","35.10730210000001","137.0423869"
"尾張旭店","愛知県尾張旭市西大道町原田2525-9","35.2167568","137.0406859"
"伝馬町店","愛知県名古屋市熱田区神宮4-7-27　宝18ビル","35.1206909","136.9116683"
"白雲店","愛知県名古屋市南区白雲町84","35.0955415","136.9403527"
"菅田店","愛知県名古屋市天白区菅田1-2508　インテリジェント野並","35.1126765","136.9635471"
"八田店","愛知県名古屋市中村区並木2-262　フェニックス並木","35.149933","136.8525163"
"春日店","愛知県清須市春日中沼15-1","35.2293446","136.855377"
"都通店","愛知県名古屋市千種区豊年町14-13　クリーンビル1","35.175429","136.938556"
"滝ノ水店","愛知県名古屋市緑区滝の水1-1001","35.0919297","136.9787939"
"日比野店","愛知県名古屋市熱田区大宝3-9-8","35.1302777","136.8944978"
"南陽町店","愛知県名古屋市港区八百島2-1803","35.1173137","136.8182297"
"緑黒石店","愛知県名古屋市緑区黒沢台4-707","35.0986824","136.9936506"
"桜台店","愛知県名古屋市南区鳥栖2-1302","35.1097206","136.9381666"
"植田店","愛知県名古屋市天白区植田本町2-1010","35.1326616","136.9917527"
"港楽店","愛知県名古屋市港区港楽1-8-4","35.105631","136.8859363"
"岩塚店","愛知県名古屋市中村区畑江通8-43-1","35.15729810000001","136.8591837"
"西大曽根店","愛知県名古屋市北区大曽根2ｰ7ｰ23　サンハウス大曽根1A","35.1894115","136.9313062"
"松河戸店","愛知県春日井市中切町1-1-5","35.2256754","136.9689857"
"梅森台店","愛知県日進市梅森台1-174","35.1320206","137.0140229"
"春日井上八田店","愛知県春日井市八田町7-3-14","35.2564373","136.9692151"
"吹上店","愛知県名古屋市千種区大久手町6-9","35.1595896","136.9361541"
"大府駅前店","愛知県大府市中央町6-155","35.0088958","136.9641125"
"相生店","愛知県名古屋市天白区境根94番地","35.1051504","136.9744079"
"葵店","愛知県名古屋市東区葵3ｰ12ｰ23","35.1728736","136.931868"
"知立堀切店","愛知県知立市鳥居1-13-9","35.0026487","137.0358645"
"四女子店","愛知県名古屋市中川区好本町1-25-1","35.1430168","136.869625"
"千音寺店","愛知県名古屋市中川区富田町大字千音寺字間渡里2850","35.1582721","136.8125856"
"大畑店","愛知県名古屋市中川区大畑町1-133　ベルハイム大畑","35.1316642","136.8658067"
"甚目寺森店","愛知県あま市森4-2-10","35.211404","136.8106815"
"ベルコート店","愛知県尾張旭市狩宿町4-35-1","35.2109775","137.0643032"
"守山城下店","愛知県名古屋市守山区小六町21-12","35.1943749","136.9701866"
"春日井東谷橋店","愛知県春日井市高蔵寺町4-1-10","35.2600464","137.0432466"
"半田宮本店","愛知県半田市宮本町5-303-12","34.8873812","136.9073421"
"平針試験場前店","愛知県名古屋市天白区平針台2ｰ201","35.1061679","137.0062989"
"大府共和店","愛知県大府市共栄町8-13-3","35.0410833","136.9541487"
"恵方店","愛知県名古屋市昭和区阿由知通5-13","35.1457914","136.9340547"
"篭山店","愛知県名古屋市緑区鴻仏目1-605","35.0816227","136.98163"
"豊田挙母店","愛知県豊田市八幡町3-3","35.0797397","137.1626624"
"知多寺本店","愛知県知多市八幡字東水代31-6","34.998","136.8756761"
"安城末広店","愛知県安城市錦町33","34.9539726","137.0831357"
"師勝店","愛知県北名古屋市久地野権現1","35.2369952","136.8966554"
"安井店","愛知県名古屋市北区安井町4-13-25","35.2108685","136.92184"
"上名古屋店","愛知県名古屋市西区上名古屋1-12-5","35.1942054","136.897896"
"如意店","愛知県名古屋市北区如意4-44-3","35.2361377","136.9207616"
"豊田保見店","愛知県豊田市保見町井ノ口72-2","35.1352346","137.1243063"
"前浜店","愛知県名古屋市南区寺部通3-5","35.0929469","136.9295564"
"東郷春木店","愛知県愛知郡東郷町大字春木字新池3917-4","35.0904179","137.0333326"
"高浜店","愛知県高浜市神明町7ｰ1ｰ18","34.9336569","137.0014725"
"大高店","愛知県名古屋市緑区鳴海町下汐田86","35.0719325","136.9393139"
"有松店","愛知県名古屋市緑区桶狭間神明346番地","35.0549933","136.9631314"
"一宮浜町店","愛知県一宮市浜町4-11-1","35.3095591","136.8122759"
"姥子山店","愛知県名古屋市緑区鎌倉台2-1701","35.0712712","136.9844273"
"津島愛宕店","愛知県津島市愛宕町4-25-1","35.1696661","136.7367256"
"半田やなべ店","愛知県半田市岩滑高山町6-22-12","34.9094854","136.9142323"
"清須店","愛知県清須市西市場6-9-23","35.2203423","136.8282102"
"春日井如意申店","愛知県春日井市如意申町6-1-12","35.2457354","136.949903"
"長久手図書館通店","愛知県長久手市西浦812","35.1768538","137.0376994"
"小牧小木店","愛知県小牧市小木西2-246-1","35.2731369","136.8897872"
"守山口店","愛知県名古屋市守山区市場14番16","35.1956047","136.9507129"
"稲沢西店","愛知県稲沢市石橋5ｰ38","35.2592447","136.7789373"
"一宮花池店","愛知県一宮市花池3ｰ11ｰ7","35.2875305","136.7955535"
"西尾今川店","愛知県西尾市今川町馬捨場16","34.85754","137.0613805"
"萱津橋店","愛知県あま市坂牧大塚86","35.1840522","136.8319604"
"豊明前後店","愛知県豊明市前後町螺貝1378-1","35.0591891","136.9895631"
"西尾道光寺店","愛知県西尾市道光寺町堰板37ｰ1","34.8729131","137.0612161"
"佐屋北一色店","愛知県愛西市北一色町北田面273","35.1497493","136.7245917"
"蟹江本町店","愛知県海部郡蟹江町大字蟹江本町字コの割34","35.1386939","136.7982635"
"鳥居通店","愛知県名古屋市中村区鳥居通3-32","35.173885","136.8630437"
"守山区役所前店","愛知県名古屋市守山区小幡中2ｰ23ｰ9　グレース北屋敷","35.2037482","136.9755384"
"名東藤森店","愛知県名古屋市名東区藤森1ｰ6-1","35.181208","137.0083694"
"東海荒尾店","愛知県東海市荒尾町祢崎106","35.029342","136.9140614"
"守山八剣店","愛知県名古屋市守山区元郷2ｰ802","35.2028968","137.0008834"
"小牧岩崎店","愛知県小牧市岩崎1995","35.3097252","136.9296685"
"岡崎大西店","愛知県岡崎市大西2丁目1-6","34.9427494","137.1849454"
"一宮小信店","愛知県一宮市小信中島字川東14-1","35.3115194","136.7483909"
"岡崎若松店","愛知県岡崎市若松町字横手16-1","34.9135487","137.1637403"
"津島神守店","愛知県津島市越津町字柳之内93","35.1765271","136.7649923"
"東浦店","愛知県知多郡東浦町大字生路字池下5","34.9515123","136.9705136"
"一宮開明店","愛知県一宮市開明字郷東20ｰ1","35.3153412","136.7714414"
"忠次店","愛知県名古屋市南区忠次2-1-1","35.102601","136.9184992"
"桃花台店","愛知県小牧市高根2ｰ189-5","35.2936089","136.9773568"
"一宮森本店","愛知県一宮市森本1ｰ22-5","35.2942081","136.8158732"
"小牧中央店","愛知県小牧市中央6-332","35.2842642","136.9361385"
"刈谷稲場店","愛知県刈谷市稲場町1ｰ121","35.004414","136.9976207"
"刈谷司店","愛知県刈谷市司町1ｰ37","34.9848694","136.988161"
"津島高台寺店","愛知県津島市高台寺字茶木原41-4","35.1586992","136.7727702"
"守山白沢店","愛知県名古屋市守山区川村町365","35.2134275","136.9688083"
"弥富東店","愛知県弥富市大字鯏浦字車東1-2","35.1148266","136.740107"
"扶桑伊勢帰店","愛知県丹羽郡扶桑町大字高雄字伊勢帰128-2","35.3655833","136.9206307"
"岡崎上和田店","愛知県岡崎市天白町字東池25-1","34.933613","137.1454687"
"砂田橋店","愛知県名古屋市東区大幸4丁目16番1号","35.1890753","136.9540877"
"瑞穂運動場店","愛知県名古屋市瑞穂区田辺通6ｰ43","35.1206338","136.9480209"
"刈谷駅南口店","愛知県刈谷市南桜町1ｰ29","34.9909744","137.0070841"
"大府インター店","愛知県大府市宮内町4-378","35.0053311","136.9236893"
"豊橋藤沢店","愛知県豊橋市小浜町11","34.7403716","137.3657972"
"豊田前田店","愛知県豊田市前田町6-39-1","35.0636332","137.1635297"
"安城今村店","愛知県安城市今本町4ｰ1-6","34.9926368","137.0793912"
"江南西店","愛知県江南市東野町米野85","35.3360886","136.85909"
"栄鉄砲町店","愛知県名古屋市中区栄2ｰ14-6","35.1663178","136.9022042"
"瀬戸山口店","愛知県瀬戸市今林町395","35.2004777","137.0927432"
"大治店","愛知県海部郡大治町大字馬島字大門西48","35.1729201","136.8194088"
"半田瑞穂店","愛知県半田市瑞穂町7ｰ11-2","34.8851574","136.9405526"
"名東山の手店","愛知県名古屋市名東区山の手3ｰ901","35.1861959","136.9947988"
"岩倉八剱店","愛知県岩倉市八剱町下り松36","35.2929178","136.8799291"
"富士見橋店","愛知県名古屋市中区千代田4-1-29","35.1554919","136.9126564"
"阿久比店","愛知県知多郡阿久比町大字白沢天神前39-1","34.9543577","136.9142062"
"豊橋下地店","愛知県豊橋市下地字操穴32","34.7879077","137.3886021"
"犬山五郎丸店","愛知県犬山市大字五郎丸字上前田23","35.3662105","136.9429836"
"錦東櫻店","愛知県名古屋市東区東桜2ｰ15ｰ20　光ビル1F","35.1707984","136.9168803"
"岡崎上六名店","愛知県岡崎市上六名2ｰ9ｰ1","34.9502451","137.1555478"
"本郷駅前店","愛知県名古屋市名東区本郷2ｰ133","35.1768838","137.0170574"
"メッツ大曽根店","愛知県名古屋市東区矢田2-1-95","35.1923354","136.9405694"
"昭和橋店","愛知県名古屋市中川区昭和橋通3-16","35.1250525","136.8671596"
"春日井篠木店","愛知県春日井市下市場町3ｰ4-12","35.2585469","136.9973376"
"大府名高山店","愛知県大府市横根町名高山26-10","35.0344179","136.9706421"
"三好東山店","愛知県みよし市三好町東山台21-3","35.087355","137.086786"
"岩倉川井町店","愛知県岩倉市川井町白山27","35.2650851","136.8663932"
"豊田本新町店","愛知県豊田市本新町8-82-2","35.0790262","137.1141951"
"蒲郡三谷店","愛知県蒲郡市三谷北通1-159","34.8192318","137.2505833"
"幸田北店","愛知県額田郡幸田町相見越丸8","34.8889184","137.1647078"
"三好インター店","愛知県みよし市福谷町落合18-3","35.1113581","137.1011175"
"豊川末広通店","愛知県豊川市末広通3-44-3","34.8302567","137.3922405"
"守山瀬古店","愛知県名古屋市守山区瀬古東3-1206","35.2118076","136.9430686"
"日進竹の山店","愛知県日進市竹の山2丁目1924番地","35.1557343","137.0344339"
"西尾寺津店","愛知県西尾市寺津2ｰ10ｰ14","34.8490286","137.0181313"
"栄錦三丁目店","愛知県名古屋市中区錦3ｰ20-13","35.1701756","136.9030401"
"平安通店","愛知県名古屋市北区八竜町1-51","35.1997729","136.9315645"
"日置橋店","愛知県名古屋市中区松原1ｰ3-28","35.1577213","136.8935386"
"東刈谷店","愛知県刈谷市松栄町1ｰ14-8","34.9796875","137.0335513"
"本店","愛知県名古屋市瑞穂区上山町3-13","35.1378736","136.9504091"
"高岳店","愛知県名古屋市東区泉2ｰ21-3","35.1760002","136.9147306"
"大磯店","愛知県名古屋市南区大磯通4-15　美谷レジデンス106","35.1057482","136.9263771"
"松風店","愛知県名古屋市昭和区松風町1-7","35.1469632","136.9269053"
"上前津店","愛知県名古屋市中区大須3-31-42","35.1583717","136.9051542"
"東郊通店","愛知県名古屋市昭和区御器所1-3-1","35.14990960000001","136.9187088"
"五女子店","愛知県名古屋市中川区露橋2-25-15","35.1458696","136.8842954"
"豊明店","愛知県豊明市新田町門先8-11","35.0512105","137.0196795"
"刈谷店","愛知県刈谷市井ヶ谷町天白19-4","35.0642102","137.0502039"
"本町店","愛知県名古屋市中区大須2-5-13","35.1617906","136.9018822"
"新栄店","愛知県名古屋市中区新栄1-17-1","35.1661461","136.9189777"
"正木店","愛知県名古屋市中区正木3-1-24","35.1456618","136.8948138"
"平和店","愛知県名古屋市中区平和1-10-10　コスモパレス","35.14842","136.906607"
"道徳店","愛知県名古屋市南区道徳新町5-1　パークテラス道徳1F","35.1047827","136.9058315"
"杁中店","愛知県名古屋市昭和区隼人町6-8　ピアハヤト2F","35.1428189","136.9554281"
"庄内通店","愛知県名古屋市西区庄内通4-1　庄内ハイツ","35.205976","136.891388"
"伏見店","愛知県名古屋市中区丸の内2-1-30　丸の内オフィスフォーラム","35.1764503","136.8969827"
"当知店","愛知県名古屋市港区甚兵衛通1-5-1","35.1068241","136.8463521"
"東海通店","愛知県名古屋市港区九番町5-2　エミールIST1F","35.114341","136.884894"
"浦里店","愛知県名古屋市緑区浦里1-160　グランドハイツ浦里","35.0886781","136.9460207"
"児玉店","愛知県名古屋市西区児玉町3-5-10","35.1918133","136.8798033"
"弥生店","愛知県名古屋市南区明円町19-6　サンヒルズ秀B棟","35.099968","136.9427399"
"法華店","愛知県名古屋市中川区法華西町1-13","35.1318677","136.8421455"
"野並店","愛知県名古屋市天白区井の森232-1　アイコービル1F","35.1042458","136.9512742"
"中割店","愛知県名古屋市南区中割町3-120-1","35.0876055","136.9195908"
"山手店","愛知県名古屋市昭和区山手通4-15　ペポ山手ビル2F","35.1411875","136.9667344"
"港店","愛知県名古屋市港区名港2-9-27　ポートプラザビル1F","35.0946424","136.8826424"
"城北店","愛知県名古屋市北区八代町2-10-2","35.2018717","136.9109749"
"柴田店","愛知県名古屋市南区柴田町6-19","35.0709686","136.9096478"
"豊田梅坪店","愛知県豊田市梅坪町1-18-1","35.1052393","137.1579698"
"安城店","愛知県安城市朝日町20-20","34.9561087","137.0905016"
"和合店","愛知県愛知郡東郷町和合牛廻間41-4","35.10730210000001","137.0423869"
"尾張旭店","愛知県尾張旭市西大道町原田2525-9","35.2167568","137.0406859"
"伝馬町店","愛知県名古屋市熱田区神宮4-7-27　宝18ビル","35.1206909","136.9116683"
"白雲店","愛知県名古屋市南区白雲町84","35.0955415","136.9403527"
"菅田店","愛知県名古屋市天白区菅田1-2508　インテリジェント野並","35.1126765","136.9635471"
"八田店","愛知県名古屋市中村区並木2-262　フェニックス並木","35.149933","136.8525163"
"春日店","愛知県清須市春日中沼15-1","35.2293446","136.855377"
"都通店","愛知県名古屋市千種区豊年町14-13　クリーンビル1","35.175429","136.938556"
"滝ノ水店","愛知県名古屋市緑区滝の水1-1001","35.0919297","136.9787939"
"日比野店","愛知県名古屋市熱田区大宝3-9-8","35.1302777","136.8944978"
"南陽町店","愛知県名古屋市港区八百島2-1803","35.1173137","136.8182297"
"緑黒石店","愛知県名古屋市緑区黒沢台4-707","35.0986824","136.9936506"
"桜台店","愛知県名古屋市南区鳥栖2-1302","35.1097206","136.9381666"
"植田店","愛知県名古屋市天白区植田本町2-1010","35.1326616","136.9917527"
"港楽店","愛知県名古屋市港区港楽1-8-4","35.105631","136.8859363"
"岩塚店","愛知県名古屋市中村区畑江通8-43-1","35.15729810000001","136.8591837"
"西大曽根店","愛知県名古屋市北区大曽根2ｰ7ｰ23　サンハウス大曽根1A","35.1894115","136.9313062"
"松河戸店","愛知県春日井市中切町1-1-5","35.2256754","136.9689857"
"梅森台店","愛知県日進市梅森台1-174","35.1320206","137.0140229"
"春日井上八田店","愛知県春日井市八田町7-3-14","35.2564373","136.9692151"
"吹上店","愛知県名古屋市千種区大久手町6-9","35.1595896","136.9361541"
"大府駅前店","愛知県大府市中央町6-155","35.0088958","136.9641125"
"相生店","愛知県名古屋市天白区境根94番地","35.1051504","136.9744079"
"葵店","愛知県名古屋市東区葵3ｰ12ｰ23","35.1728736","136.931868"
"知立堀切店","愛知県知立市鳥居1-13-9","35.0026487","137.0358645"
"四女子店","愛知県名古屋市中川区好本町1-25-1","35.1430168","136.869625"
"千音寺店","愛知県名古屋市中川区富田町大字千音寺字間渡里2850","35.1582721","136.8125856"
"大畑店","愛知県名古屋市中川区大畑町1-133　ベルハイム大畑","35.1316642","136.8658067"
"甚目寺森店","愛知県あま市森4-2-10","35.211404","136.8106815"
"ベルコート店","愛知県尾張旭市狩宿町4-35-1","35.2109775","137.0643032"
"守山城下店","愛知県名古屋市守山区小六町21-12","35.1943749","136.9701866"
"春日井東谷橋店","愛知県春日井市高蔵寺町4-1-10","35.2600464","137.0432466"
"半田宮本店","愛知県半田市宮本町5-303-12","34.8873812","136.9073421"
"平針試験場前店","愛知県名古屋市天白区平針台2ｰ201","35.1061679","137.0062989"
"大府共和店","愛知県大府市共栄町8-13-3","35.0410833","136.9541487"
"恵方店","愛知県名古屋市昭和区阿由知通5-13","35.1457914","136.9340547"
"篭山店","愛知県名古屋市緑区鴻仏目1-605","35.0816227","136.98163"
"豊田挙母店","愛知県豊田市八幡町3-3","35.0797397","137.1626624"
"知多寺本店","愛知県知多市八幡字東水代31-6","34.998","136.8756761"
"安城末広店","愛知県安城市錦町33","34.9539726","137.0831357"
"師勝店","愛知県北名古屋市久地野権現1","35.2369952","136.8966554"
"安井店","愛知県名古屋市北区安井町4-13-25","35.2108685","136.92184"
"上名古屋店","愛知県名古屋市西区上名古屋1-12-5","35.1942054","136.897896"
"如意店","愛知県名古屋市北区如意4-44-3","35.2361377","136.9207616"
"豊田保見店","愛知県豊田市保見町井ノ口72-2","35.1352346","137.1243063"
"前浜店","愛知県名古屋市南区寺部通3-5","35.0929469","136.9295564"
"東郷春木店","愛知県愛知郡東郷町大字春木字新池3917-4","35.0904179","137.0333326"
"高浜店","愛知県高浜市神明町7ｰ1ｰ18","34.9336569","137.0014725"
"大高店","愛知県名古屋市緑区鳴海町下汐田86","35.0719325","136.9393139"
"有松店","愛知県名古屋市緑区桶狭間神明346番地","35.0549933","136.9631314"
"一宮浜町店","愛知県一宮市浜町4-11-1","35.3095591","136.8122759"
"姥子山店","愛知県名古屋市緑区鎌倉台2-1701","35.0712712","136.9844273"
"津島愛宕店","愛知県津島市愛宕町4-25-1","35.1696661","136.7367256"
"半田やなべ店","愛知県半田市岩滑高山町6-22-12","34.9094854","136.9142323"
"清須店","愛知県清須市西市場6-9-23","35.2203423","136.8282102"
"春日井如意申店","愛知県春日井市如意申町6-1-12","35.2457354","136.949903"
"長久手図書館通店","愛知県長久手市西浦812","35.1768538","137.0376994"
"小牧小木店","愛知県小牧市小木西2-246-1","35.2731369","136.8897872"
"守山口店","愛知県名古屋市守山区市場14番16","35.1956047","136.9507129"
"稲沢西店","愛知県稲沢市石橋5ｰ38","35.2592447","136.7789373"
"一宮花池店","愛知県一宮市花池3ｰ11ｰ7","35.2875305","136.7955535"
"西尾今川店","愛知県西尾市今川町馬捨場16","34.85754","137.0613805"
"萱津橋店","愛知県あま市坂牧大塚86","35.1840522","136.8319604"
"豊明前後店","愛知県豊明市前後町螺貝1378-1","35.0591891","136.9895631"
"西尾道光寺店","愛知県西尾市道光寺町堰板37ｰ1","34.8729131","137.0612161"
"佐屋北一色店","愛知県愛西市北一色町北田面273","35.1497493","136.7245917"
"蟹江本町店","愛知県海部郡蟹江町大字蟹江本町字コの割34","35.1386939","136.7982635"
"鳥居通店","愛知県名古屋市中村区鳥居通3-32","35.173885","136.8630437"
"守山区役所前店","愛知県名古屋市守山区小幡中2ｰ23ｰ9　グレース北屋敷","35.2037482","136.9755384"
"名東藤森店","愛知県名古屋市名東区藤森1ｰ6-1","35.181208","137.0083694"
"東海荒尾店","愛知県東海市荒尾町祢崎106","35.029342","136.9140614"
"守山八剣店","愛知県名古屋市守山区元郷2ｰ802","35.2028968","137.0008834"
"小牧岩崎店","愛知県小牧市岩崎1995","35.3097252","136.9296685"
"岡崎大西店","愛知県岡崎市大西2丁目1-6","34.9427494","137.1849454"
"一宮小信店","愛知県一宮市小信中島字川東14-1","35.3115194","136.7483909"
"岡崎若松店","愛知県岡崎市若松町字横手16-1","34.9135487","137.1637403"
"津島神守店","愛知県津島市越津町字柳之内93","35.1765271","136.7649923"
"東浦店","愛知県知多郡東浦町大字生路字池下5","34.9515123","136.9705136"
"一宮開明店","愛知県一宮市開明字郷東20ｰ1","35.3153412","136.7714414"
"忠次店","愛知県名古屋市南区忠次2-1-1","35.102601","136.9184992"
"桃花台店","愛知県小牧市高根2ｰ189-5","35.2936089","136.9773568"
"一宮森本店","愛知県一宮市森本1ｰ22-5","35.2942081","136.8158732"
"小牧中央店","愛知県小牧市中央6-332","35.2842642","136.9361385"
"刈谷稲場店","愛知県刈谷市稲場町1ｰ121","35.004414","136.9976207"
"刈谷司店","愛知県刈谷市司町1ｰ37","34.9848694","136.988161"
"津島高台寺店","愛知県津島市高台寺字茶木原41-4","35.1586992","136.7727702"
"守山白沢店","愛知県名古屋市守山区川村町365","35.2134275","136.9688083"
"弥富東店","愛知県弥富市大字鯏浦字車東1-2","35.1148266","136.740107"
"扶桑伊勢帰店","愛知県丹羽郡扶桑町大字高雄字伊勢帰128-2","35.3655833","136.9206307"
"岡崎上和田店","愛知県岡崎市天白町字東池25-1","34.933613","137.1454687"
"砂田橋店","愛知県名古屋市東区大幸4丁目16番1号","35.1890753","136.9540877"
"瑞穂運動場店","愛知県名古屋市瑞穂区田辺通6ｰ43","35.1206338","136.9480209"
"刈谷駅南口店","愛知県刈谷市南桜町1ｰ29","34.9909744","137.0070841"
"大府インター店","愛知県大府市宮内町4-378","35.0053311","136.9236893"
"豊橋藤沢店","愛知県豊橋市小浜町11","34.7403716","137.3657972"
"豊田前田店","愛知県豊田市前田町6-39-1","35.0636332","137.1635297"
"安城今村店","愛知県安城市今本町4ｰ1-6","34.9926368","137.0793912"
"江南西店","愛知県江南市東野町米野85","35.3360886","136.85909"
"栄鉄砲町店","愛知県名古屋市中区栄2ｰ14-6","35.1663178","136.9022042"
"瀬戸山口店","愛知県瀬戸市今林町395","35.2004777","137.0927432"
"大治店","愛知県海部郡大治町大字馬島字大門西48","35.1729201","136.8194088"
"半田瑞穂店","愛知県半田市瑞穂町7ｰ11-2","34.8851574","136.9405526"
"名東山の手店","愛知県名古屋市名東区山の手3ｰ901","35.1861959","136.9947988"
"岩倉八剱店","愛知県岩倉市八剱町下り松36","35.2929178","136.8799291"
"富士見橋店","愛知県名古屋市中区千代田4-1-29","35.1554919","136.9126564"
"阿久比店","愛知県知多郡阿久比町大字白沢天神前39-1","34.9543577","136.9142062"
"豊橋下地店","愛知県豊橋市下地字操穴32","34.7879077","137.3886021"
"犬山五郎丸店","愛知県犬山市大字五郎丸字上前田23","35.3662105","136.9429836"
"錦東櫻店","愛知県名古屋市東区東桜2ｰ15ｰ20　光ビル1F","35.1707984","136.9168803"
"岡崎上六名店","愛知県岡崎市上六名2ｰ9ｰ1","34.9502451","137.1555478"
"本郷駅前店","愛知県名古屋市名東区本郷2ｰ133","35.1768838","137.0170574"
"メッツ大曽根店","愛知県名古屋市東区矢田2-1-95","35.1923354","136.9405694"
"昭和橋店","愛知県名古屋市中川区昭和橋通3-16","35.1250525","136.8671596"
"春日井篠木店","愛知県春日井市下市場町3ｰ4-12","35.2585469","136.9973376"
"大府名高山店","愛知県大府市横根町名高山26-10","35.0344179","136.9706421"
"三好東山店","愛知県みよし市三好町東山台21-3","35.087355","137.086786"
"岩倉川井町店","愛知県岩倉市川井町白山27","35.2650851","136.8663932"
"豊田本新町店","愛知県豊田市本新町8-82-2","35.0790262","137.1141951"
"蒲郡三谷店","愛知県蒲郡市三谷北通1-159","34.8192318","137.2505833"
"幸田北店","愛知県額田郡幸田町相見越丸8","34.8889184","137.1647078"
"三好インター店","愛知県みよし市福谷町落合18-3","35.1113581","137.1011175"
"豊川末広通店","愛知県豊川市末広通3-44-3","34.8302567","137.3922405"
"守山瀬古店","愛知県名古屋市守山区瀬古東3-1206","35.2118076","136.9430686"
"日進竹の山店","愛知県日進市竹の山2丁目1924番地","35.1557343","137.0344339"
"西尾寺津店","愛知県西尾市寺津2ｰ10ｰ14","34.8490286","137.0181313"
"栄錦三丁目店","愛知県名古屋市中区錦3ｰ20-13","35.1701756","136.9030401"
"平安通店","愛知県名古屋市北区八竜町1-51","35.1997729","136.9315645"
"日置橋店","愛知県名古屋市中区松原1ｰ3-28","35.1577213","136.8935386"
"東刈谷店","愛知県刈谷市松栄町1ｰ14-8","34.9796875","137.0335513"
"武豊里中店","愛知県知多郡武豊町字忠白田1-1","34.8420886","136.9223222"
"刈谷一里山店","愛知県刈谷市一里山町伐払39-1","35.0269494","137.0385084"
"豊田寿店","愛知県豊田市竜神町飛越94-14","35.0528801","137.1332747"
"岡崎大樹寺店","愛知県岡崎市大樹寺2ｰ7-1","34.985025","137.1579025"
"納屋橋店","愛知県名古屋市中村区名駅5-38-5","35.1683338","136.8904385"
"大杉店","愛知県名古屋市北区大杉町4ｰ62-2","35.1909874","136.9194186"
"白壁店","愛知県名古屋市東区白壁3-20-19","35.1837716","136.917969"
"日進米野木店","愛知県日進市米野木町南荒田118-2","35.1321182","137.056557"
"池下店","愛知県名古屋市千種区池下1-10-8","35.1680389","136.9442337"
"栄・広小路店","愛知県名古屋市中区錦3ｰ21ｰ18","35.1688619","136.9030818"
"三好西店","愛知県みよし市三好町中鯰ヶ池83-1","35.0920406","137.0629799"
"尾張瀬戸店","愛知県瀬戸市陶原町1-38-1","35.2228083","137.0920872"
"桜橋店","愛知県名古屋市中区錦1ｰ1-2　ザイソウビル1","35.1722951","136.8929663"
"イオンタウン有松店","愛知県名古屋市緑区鳴海町字有松裏200","35.0682454","136.9717892"
"イオンタウン千種店","愛知県名古屋市千種区千種2-16ｰ13","35.1618525","136.9238302"
"稲葉地店","愛知県名古屋市中村区稲葉地本通2ｰ27-1","35.1682685","136.8425263"
"貴船店","愛知県名古屋市名東区貴船2ｰ703","35.1677515","137.0145582"
"豊田若林西店","愛知県豊田市若林西町北葉山21-2","35.0389137","137.0932926"
"稲沢大塚店","愛知県稲沢市大塚北8ｰ56-3","35.2420805","136.7973898"
"155号線常滑店","愛知県常滑市錦町1ｰ45","34.8992635","136.8397632"
"本店","愛知県名古屋市瑞穂区上山町3-13","35.1378736","136.9504091"
"高岳店","愛知県名古屋市東区泉2ｰ21-3","35.1760002","136.9147306"
"大磯店","愛知県名古屋市南区大磯通4-15　美谷レジデンス106","35.1057482","136.9263771"
"松風店","愛知県名古屋市昭和区松風町1-7","35.1469632","136.9269053"
"上前津店","愛知県名古屋市中区大須3-31-42","35.1583717","136.9051542"
"東郊通店","愛知県名古屋市昭和区御器所1-3-1","35.14990960000001","136.9187088"
"五女子店","愛知県名古屋市中川区露橋2-25-15","35.1458696","136.8842954"
"豊明店","愛知県豊明市新田町門先8-11","35.0512105","137.0196795"
"刈谷店","愛知県刈谷市井ヶ谷町天白19-4","35.0642102","137.0502039"
"本町店","愛知県名古屋市中区大須2-5-13","35.1617906","136.9018822"
"新栄店","愛知県名古屋市中区新栄1-17-1","35.1661461","136.9189777"
"正木店","愛知県名古屋市中区正木3-1-24","35.1456618","136.8948138"
"平和店","愛知県名古屋市中区平和1-10-10　コスモパレス","35.14842","136.906607"
"道徳店","愛知県名古屋市南区道徳新町5-1　パークテラス道徳1F","35.1047827","136.9058315"
"杁中店","愛知県名古屋市昭和区隼人町6-8　ピアハヤト2F","35.1428189","136.9554281"
"庄内通店","愛知県名古屋市西区庄内通4-1　庄内ハイツ","35.205976","136.891388"
"伏見店","愛知県名古屋市中区丸の内2-1-30　丸の内オフィスフォーラム","35.1764503","136.8969827"
"当知店","愛知県名古屋市港区甚兵衛通1-5-1","35.1068241","136.8463521"
"東海通店","愛知県名古屋市港区九番町5-2　エミールIST1F","35.114341","136.884894"
"浦里店","愛知県名古屋市緑区浦里1-160　グランドハイツ浦里","35.0886781","136.9460207"
"児玉店","愛知県名古屋市西区児玉町3-5-10","35.1918133","136.8798033"
"弥生店","愛知県名古屋市南区明円町19-6　サンヒルズ秀B棟","35.099968","136.9427399"
"法華店","愛知県名古屋市中川区法華西町1-13","35.1318677","136.8421455"
"野並店","愛知県名古屋市天白区井の森232-1　アイコービル1F","35.1042458","136.9512742"
"中割店","愛知県名古屋市南区中割町3-120-1","35.0876055","136.9195908"
"山手店","愛知県名古屋市昭和区山手通4-15　ペポ山手ビル2F","35.1411875","136.9667344"
"港店","愛知県名古屋市港区名港2-9-27　ポートプラザビル1F","35.0946424","136.8826424"
"城北店","愛知県名古屋市北区八代町2-10-2","35.2018717","136.9109749"
"柴田店","愛知県名古屋市南区柴田町6-19","35.0709686","136.9096478"
"豊田梅坪店","愛知県豊田市梅坪町1-18-1","35.1052393","137.1579698"
"安城店","愛知県安城市朝日町20-20","34.9561087","137.0905016"
"和合店","愛知県愛知郡東郷町和合牛廻間41-4","35.10730210000001","137.0423869"
"尾張旭店","愛知県尾張旭市西大道町原田2525-9","35.2167568","137.0406859"
"伝馬町店","愛知県名古屋市熱田区神宮4-7-27　宝18ビル","35.1206909","136.9116683"
"白雲店","愛知県名古屋市南区白雲町84","35.0955415","136.9403527"
"菅田店","愛知県名古屋市天白区菅田1-2508　インテリジェント野並","35.1126765","136.9635471"
"八田店","愛知県名古屋市中村区並木2-262　フェニックス並木","35.149933","136.8525163"
"春日店","愛知県清須市春日中沼15-1","35.2293446","136.855377"
"都通店","愛知県名古屋市千種区豊年町14-13　クリーンビル1","35.175429","136.938556"
"滝ノ水店","愛知県名古屋市緑区滝の水1-1001","35.0919297","136.9787939"
"日比野店","愛知県名古屋市熱田区大宝3-9-8","35.1302777","136.8944978"
"南陽町店","愛知県名古屋市港区八百島2-1803","35.1173137","136.8182297"
"緑黒石店","愛知県名古屋市緑区黒沢台4-707","35.0986824","136.9936506"
"桜台店","愛知県名古屋市南区鳥栖2-1302","35.1097206","136.9381666"
"植田店","愛知県名古屋市天白区植田本町2-1010","35.1326616","136.9917527"
"港楽店","愛知県名古屋市港区港楽1-8-4","35.105631","136.8859363"
"岩塚店","愛知県名古屋市中村区畑江通8-43-1","35.15729810000001","136.8591837"
"西大曽根店","愛知県名古屋市北区大曽根2ｰ7ｰ23　サンハウス大曽根1A","35.1894115","136.9313062"
"松河戸店","愛知県春日井市中切町1-1-5","35.2256754","136.9689857"
"梅森台店","愛知県日進市梅森台1-174","35.1320206","137.0140229"
"春日井上八田店","愛知県春日井市八田町7-3-14","35.2564373","136.9692151"
"吹上店","愛知県名古屋市千種区大久手町6-9","35.1595896","136.9361541"
"大府駅前店","愛知県大府市中央町6-155","35.0088958","136.9641125"
"相生店","愛知県名古屋市天白区境根94番地","35.1051504","136.9744079"
"葵店","愛知県名古屋市東区葵3ｰ12ｰ23","35.1728736","136.931868"
"知立堀切店","愛知県知立市鳥居1-13-9","35.0026487","137.0358645"
"四女子店","愛知県名古屋市中川区好本町1-25-1","35.1430168","136.869625"
"千音寺店","愛知県名古屋市中川区富田町大字千音寺字間渡里2850","35.1582721","136.8125856"
"大畑店","愛知県名古屋市中川区大畑町1-133　ベルハイム大畑","35.1316642","136.8658067"
"甚目寺森店","愛知県あま市森4-2-10","35.211404","136.8106815"
"ベルコート店","愛知県尾張旭市狩宿町4-35-1","35.2109775","137.0643032"
"守山城下店","愛知県名古屋市守山区小六町21-12","35.1943749","136.9701866"
"春日井東谷橋店","愛知県春日井市高蔵寺町4-1-10","35.2600464","137.0432466"
"半田宮本店","愛知県半田市宮本町5-303-12","34.8873812","136.9073421"
"平針試験場前店","愛知県名古屋市天白区平針台2ｰ201","35.1061679","137.0062989"
"大府共和店","愛知県大府市共栄町8-13-3","35.0410833","136.9541487"
"恵方店","愛知県名古屋市昭和区阿由知通5-13","35.1457914","136.9340547"
"篭山店","愛知県名古屋市緑区鴻仏目1-605","35.0816227","136.98163"
"豊田挙母店","愛知県豊田市八幡町3-3","35.0797397","137.1626624"
"知多寺本店","愛知県知多市八幡字東水代31-6","34.998","136.8756761"
"安城末広店","愛知県安城市錦町33","34.9539726","137.0831357"
"師勝店","愛知県北名古屋市久地野権現1","35.2369952","136.8966554"
"安井店","愛知県名古屋市北区安井町4-13-25","35.2108685","136.92184"
"上名古屋店","愛知県名古屋市西区上名古屋1-12-5","35.1942054","136.897896"
"如意店","愛知県名古屋市北区如意4-44-3","35.2361377","136.9207616"
"豊田保見店","愛知県豊田市保見町井ノ口72-2","35.1352346","137.1243063"
"前浜店","愛知県名古屋市南区寺部通3-5","35.0929469","136.9295564"
"東郷春木店","愛知県愛知郡東郷町大字春木字新池3917-4","35.0904179","137.0333326"
"高浜店","愛知県高浜市神明町7ｰ1ｰ18","34.9336569","137.0014725"
"大高店","愛知県名古屋市緑区鳴海町下汐田86","35.0719325","136.9393139"
"有松店","愛知県名古屋市緑区桶狭間神明346番地","35.0549933","136.9631314"
"一宮浜町店","愛知県一宮市浜町4-11-1","35.3095591","136.8122759"
"姥子山店","愛知県名古屋市緑区鎌倉台2-1701","35.0712712","136.9844273"
"津島愛宕店","愛知県津島市愛宕町4-25-1","35.1696661","136.7367256"
"半田やなべ店","愛知県半田市岩滑高山町6-22-12","34.9094854","136.9142323"
"清須店","愛知県清須市西市場6-9-23","35.2203423","136.8282102"
"春日井如意申店","愛知県春日井市如意申町6-1-12","35.2457354","136.949903"
"長久手図書館通店","愛知県長久手市西浦812","35.1768538","137.0376994"
"小牧小木店","愛知県小牧市小木西2-246-1","35.2731369","136.8897872"
"守山口店","愛知県名古屋市守山区市場14番16","35.1956047","136.9507129"
"稲沢西店","愛知県稲沢市石橋5ｰ38","35.2592447","136.7789373"
"一宮花池店","愛知県一宮市花池3ｰ11ｰ7","35.2875305","136.7955535"
"西尾今川店","愛知県西尾市今川町馬捨場16","34.85754","137.0613805"
"萱津橋店","愛知県あま市坂牧大塚86","35.1840522","136.8319604"
"豊明前後店","愛知県豊明市前後町螺貝1378-1","35.0591891","136.9895631"
"西尾道光寺店","愛知県西尾市道光寺町堰板37ｰ1","34.8729131","137.0612161"
"佐屋北一色店","愛知県愛西市北一色町北田面273","35.1497493","136.7245917"
"蟹江本町店","愛知県海部郡蟹江町大字蟹江本町字コの割34","35.1386939","136.7982635"
"鳥居通店","愛知県名古屋市中村区鳥居通3-32","35.173885","136.8630437"
"守山区役所前店","愛知県名古屋市守山区小幡中2ｰ23ｰ9　グレース北屋敷","35.2037482","136.9755384"
"名東藤森店","愛知県名古屋市名東区藤森1ｰ6-1","35.181208","137.0083694"
"東海荒尾店","愛知県東海市荒尾町祢崎106","35.029342","136.9140614"
"守山八剣店","愛知県名古屋市守山区元郷2ｰ802","35.2028968","137.0008834"
"小牧岩崎店","愛知県小牧市岩崎1995","35.3097252","136.9296685"
"岡崎大西店","愛知県岡崎市大西2丁目1-6","34.9427494","137.1849454"
"一宮小信店","愛知県一宮市小信中島字川東14-1","35.3115194","136.7483909"
"岡崎若松店","愛知県岡崎市若松町字横手16-1","34.9135487","137.1637403"
"津島神守店","愛知県津島市越津町字柳之内93","35.1765271","136.7649923"
"東浦店","愛知県知多郡東浦町大字生路字池下5","34.9515123","136.9705136"
"一宮開明店","愛知県一宮市開明字郷東20ｰ1","35.3153412","136.7714414"
"忠次店","愛知県名古屋市南区忠次2-1-1","35.102601","136.9184992"
"桃花台店","愛知県小牧市高根2ｰ189-5","35.2936089","136.9773568"
"一宮森本店","愛知県一宮市森本1ｰ22-5","35.2942081","136.8158732"
"小牧中央店","愛知県小牧市中央6-332","35.2842642","136.9361385"
"刈谷稲場店","愛知県刈谷市稲場町1ｰ121","35.004414","136.9976207"
"刈谷司店","愛知県刈谷市司町1ｰ37","34.9848694","136.988161"
"津島高台寺店","愛知県津島市高台寺字茶木原41-4","35.1586992","136.7727702"
"守山白沢店","愛知県名古屋市守山区川村町365","35.2134275","136.9688083"
"弥富東店","愛知県弥富市大字鯏浦字車東1-2","35.1148266","136.740107"
"扶桑伊勢帰店","愛知県丹羽郡扶桑町大字高雄字伊勢帰128-2","35.3655833","136.9206307"
"岡崎上和田店","愛知県岡崎市天白町字東池25-1","34.933613","137.1454687"
"砂田橋店","愛知県名古屋市東区大幸4丁目16番1号","35.1890753","136.9540877"
"瑞穂運動場店","愛知県名古屋市瑞穂区田辺通6ｰ43","35.1206338","136.9480209"
"刈谷駅南口店","愛知県刈谷市南桜町1ｰ29","34.9909744","137.0070841"
"大府インター店","愛知県大府市宮内町4-378","35.0053311","136.9236893"
"豊橋藤沢店","愛知県豊橋市小浜町11","34.7403716","137.3657972"
"豊田前田店","愛知県豊田市前田町6-39-1","35.0636332","137.1635297"
"安城今村店","愛知県安城市今本町4ｰ1-6","34.9926368","137.0793912"
"江南西店","愛知県江南市東野町米野85","35.3360886","136.85909"
"栄鉄砲町店","愛知県名古屋市中区栄2ｰ14-6","35.1663178","136.9022042"
"瀬戸山口店","愛知県瀬戸市今林町395","35.2004777","137.0927432"
"大治店","愛知県海部郡大治町大字馬島字大門西48","35.1729201","136.8194088"
"半田瑞穂店","愛知県半田市瑞穂町7ｰ11-2","34.8851574","136.9405526"
"名東山の手店","愛知県名古屋市名東区山の手3ｰ901","35.1861959","136.9947988"
"岩倉八剱店","愛知県岩倉市八剱町下り松36","35.2929178","136.8799291"
"富士見橋店","愛知県名古屋市中区千代田4-1-29","35.1554919","136.9126564"
"阿久比店","愛知県知多郡阿久比町大字白沢天神前39-1","34.9543577","136.9142062"
"豊橋下地店","愛知県豊橋市下地字操穴32","34.7879077","137.3886021"
"犬山五郎丸店","愛知県犬山市大字五郎丸字上前田23","35.3662105","136.9429836"
"錦東櫻店","愛知県名古屋市東区東桜2ｰ15ｰ20　光ビル1F","35.1707984","136.9168803"
"岡崎上六名店","愛知県岡崎市上六名2ｰ9ｰ1","34.9502451","137.1555478"
"本郷駅前店","愛知県名古屋市名東区本郷2ｰ133","35.1768838","137.0170574"
"メッツ大曽根店","愛知県名古屋市東区矢田2-1-95","35.1923354","136.9405694"
"昭和橋店","愛知県名古屋市中川区昭和橋通3-16","35.1250525","136.8671596"
"春日井篠木店","愛知県春日井市下市場町3ｰ4-12","35.2585469","136.9973376"
"大府名高山店","愛知県大府市横根町名高山26-10","35.0344179","136.9706421"
"三好東山店","愛知県みよし市三好町東山台21-3","35.087355","137.086786"
"岩倉川井町店","愛知県岩倉市川井町白山27","35.2650851","136.8663932"
"豊田本新町店","愛知県豊田市本新町8-82-2","35.0790262","137.1141951"
"蒲郡三谷店","愛知県蒲郡市三谷北通1-159","34.8192318","137.2505833"
"幸田北店","愛知県額田郡幸田町相見越丸8","34.8889184","137.1647078"
"三好インター店","愛知県みよし市福谷町落合18-3","35.1113581","137.1011175"
"豊川末広通店","愛知県豊川市末広通3-44-3","34.8302567","137.3922405"
"守山瀬古店","愛知県名古屋市守山区瀬古東3-1206","35.2118076","136.9430686"
"日進竹の山店","愛知県日進市竹の山2丁目1924番地","35.1557343","137.0344339"
"西尾寺津店","愛知県西尾市寺津2ｰ10ｰ14","34.8490286","137.0181313"
"栄錦三丁目店","愛知県名古屋市中区錦3ｰ20-13","35.1701756","136.9030401"
"平安通店","愛知県名古屋市北区八竜町1-51","35.1997729","136.9315645"
"日置橋店","愛知県名古屋市中区松原1ｰ3-28","35.1577213","136.8935386"
"東刈谷店","愛知県刈谷市松栄町1ｰ14-8","34.9796875","137.0335513"
"武豊里中店","愛知県知多郡武豊町字忠白田1-1","34.8420886","136.9223222"
"刈谷一里山店","愛知県刈谷市一里山町伐払39-1","35.0269494","137.0385084"
"豊田寿店","愛知県豊田市竜神町飛越94-14","35.0528801","137.1332747"
"岡崎大樹寺店","愛知県岡崎市大樹寺2ｰ7-1","34.985025","137.1579025"
"納屋橋店","愛知県名古屋市中村区名駅5-38-5","35.1683338","136.8904385"
"大杉店","愛知県名古屋市北区大杉町4ｰ62-2","35.1909874","136.9194186"
"白壁店","愛知県名古屋市東区白壁3-20-19","35.1837716","136.917969"
"日進米野木店","愛知県日進市米野木町南荒田118-2","35.1321182","137.056557"
"池下店","愛知県名古屋市千種区池下1-10-8","35.1680389","136.9442337"
"栄・広小路店","愛知県名古屋市中区錦3ｰ21ｰ18","35.1688619","136.9030818"
"三好西店","愛知県みよし市三好町中鯰ヶ池83-1","35.0920406","137.0629799"
"尾張瀬戸店","愛知県瀬戸市陶原町1-38-1","35.2228083","137.0920872"
"桜橋店","愛知県名古屋市中区錦1ｰ1-2　ザイソウビル1","35.1722951","136.8929663"
"イオンタウン有松店","愛知県名古屋市緑区鳴海町字有松裏200","35.0682454","136.9717892"
"イオンタウン千種店","愛知県名古屋市千種区千種2-16ｰ13","35.1618525","136.9238302"
"稲葉地店","愛知県名古屋市中村区稲葉地本通2ｰ27-1","35.1682685","136.8425263"
"貴船店","愛知県名古屋市名東区貴船2ｰ703","35.1677515","137.0145582"
"豊田若林西店","愛知県豊田市若林西町北葉山21-2","35.0389137","137.0932926"
"稲沢大塚店","愛知県稲沢市大塚北8ｰ56-3","35.2420805","136.7973898"
"155号線常滑店","愛知県常滑市錦町1ｰ45","34.8992635","136.8397632"
"中川玉川町店","愛知県名古屋市中川区玉川町1-1","35.1234336","136.8776168"
"碧南店","愛知県碧南市霞浦町2-37","34.8829044","137.0028189"
"守山志段味店","愛知県名古屋市守山区平池東315","35.2369086","137.0061127"
"エスカ店","愛知県名古屋市中村区椿町6ｰ9　エスカ地下街内","35.1702156","136.8803616"
"岡崎矢作店","愛知県岡崎市矢作町字桜海道14-1","34.9579302","137.1435014"
"岡崎橋目店","愛知県岡崎市小針町字神田57-1","34.9859901","137.1269807"
"栄四丁目店","愛知県名古屋市中区栄4-16-10","35.1665763","136.910634"
"小坂井店","愛知県豊川市伊奈町慶応23-194","34.8024515","137.3456073"
"ヨシヅヤ津島北テラス店","愛知県津島市片岡町60","35.1837669","136.7267927"
"一宮神山店","愛知県一宮市神山1-14-26","35.3041562","136.7906341"
"ユニモール店","愛知県名古屋市中村区名駅4ｰ5ｰ26","35.1713388","136.8862417"
"栄三丁目店","愛知県名古屋市中区栄3-8-8","35.1675205","136.9055039"
"イオンモール大高店","愛知県名古屋市緑区大高町字奥平子1-1　イオン大高ショッピングセンター","35.0536959","136.9462716"
"リソラ大府店","愛知県大府市柊山町1丁目98番地","35.0169863","136.9577601"
"イオンタウン弥富店","愛知県弥富市五明町蒲原1371-4","35.1143953","136.7170425"
"栄・大津通店","愛知県名古屋市中区栄3-27-7","35.1650598","136.9069538"
"テレピア店","愛知県名古屋市東区東桜一丁目1413番","35.1726088","136.9101311"
"蒲郡競艇場前店","愛知県蒲郡市拾石町塩浜8番地","34.8225009","137.202492"
"江南村久野店","愛知県江南市村久野町瀬頭163-5","35.3558168","136.8738829"
"桜通大津店","愛知県名古屋市中区丸の内三丁目19番30号","35.1741974","136.9066259"
"本店","愛知県名古屋市瑞穂区上山町3-13","35.1378736","136.9504091"
"高岳店","愛知県名古屋市東区泉2ｰ21-3","35.1760002","136.9147306"
"大磯店","愛知県名古屋市南区大磯通4-15　美谷レジデンス106","35.1057482","136.9263771"
"松風店","愛知県名古屋市昭和区松風町1-7","35.1469632","136.9269053"
"上前津店","愛知県名古屋市中区大須3-31-42","35.1583717","136.9051542"
"東郊通店","愛知県名古屋市昭和区御器所1-3-1","35.14990960000001","136.9187088"
"五女子店","愛知県名古屋市中川区露橋2-25-15","35.1458696","136.8842954"
"豊明店","愛知県豊明市新田町門先8-11","35.0512105","137.0196795"
"刈谷店","愛知県刈谷市井ヶ谷町天白19-4","35.0642102","137.0502039"
"本町店","愛知県名古屋市中区大須2-5-13","35.1617906","136.9018822"
"新栄店","愛知県名古屋市中区新栄1-17-1","35.1661461","136.9189777"
"正木店","愛知県名古屋市中区正木3-1-24","35.1456618","136.8948138"
"平和店","愛知県名古屋市中区平和1-10-10　コスモパレス","35.14842","136.906607"
"道徳店","愛知県名古屋市南区道徳新町5-1　パークテラス道徳1F","35.1047827","136.9058315"
"杁中店","愛知県名古屋市昭和区隼人町6-8　ピアハヤト2F","35.1428189","136.9554281"
"庄内通店","愛知県名古屋市西区庄内通4-1　庄内ハイツ","35.205976","136.891388"
"伏見店","愛知県名古屋市中区丸の内2-1-30　丸の内オフィスフォーラム","35.1764503","136.8969827"
"当知店","愛知県名古屋市港区甚兵衛通1-5-1","35.1068241","136.8463521"
"東海通店","愛知県名古屋市港区九番町5-2　エミールIST1F","35.114341","136.884894"
"浦里店","愛知県名古屋市緑区浦里1-160　グランドハイツ浦里","35.0886781","136.9460207"
"児玉店","愛知県名古屋市西区児玉町3-5-10","35.1918133","136.8798033"
"弥生店","愛知県名古屋市南区明円町19-6　サンヒルズ秀B棟","35.099968","136.9427399"
"法華店","愛知県名古屋市中川区法華西町1-13","35.1318677","136.8421455"
"野並店","愛知県名古屋市天白区井の森232-1　アイコービル1F","35.1042458","136.9512742"
"中割店","愛知県名古屋市南区中割町3-120-1","35.0876055","136.9195908"
"山手店","愛知県名古屋市昭和区山手通4-15　ペポ山手ビル2F","35.1411875","136.9667344"
"港店","愛知県名古屋市港区名港2-9-27　ポートプラザビル1F","35.0946424","136.8826424"
"城北店","愛知県名古屋市北区八代町2-10-2","35.2018717","136.9109749"
"柴田店","愛知県名古屋市南区柴田町6-19","35.0709686","136.9096478"
"豊田梅坪店","愛知県豊田市梅坪町1-18-1","35.1052393","137.1579698"
"安城店","愛知県安城市朝日町20-20","34.9561087","137.0905016"
"和合店","愛知県愛知郡東郷町和合牛廻間41-4","35.10730210000001","137.0423869"
"尾張旭店","愛知県尾張旭市西大道町原田2525-9","35.2167568","137.0406859"
"伝馬町店","愛知県名古屋市熱田区神宮4-7-27　宝18ビル","35.1206909","136.9116683"
"白雲店","愛知県名古屋市南区白雲町84","35.0955415","136.9403527"
"菅田店","愛知県名古屋市天白区菅田1-2508　インテリジェント野並","35.1126765","136.9635471"
"八田店","愛知県名古屋市中村区並木2-262　フェニックス並木","35.149933","136.8525163"
"春日店","愛知県清須市春日中沼15-1","35.2293446","136.855377"
"都通店","愛知県名古屋市千種区豊年町14-13　クリーンビル1","35.175429","136.938556"
"滝ノ水店","愛知県名古屋市緑区滝の水1-1001","35.0919297","136.9787939"
"日比野店","愛知県名古屋市熱田区大宝3-9-8","35.1302777","136.8944978"
"南陽町店","愛知県名古屋市港区八百島2-1803","35.1173137","136.8182297"
"緑黒石店","愛知県名古屋市緑区黒沢台4-707","35.0986824","136.9936506"
"桜台店","愛知県名古屋市南区鳥栖2-1302","35.1097206","136.9381666"
"植田店","愛知県名古屋市天白区植田本町2-1010","35.1326616","136.9917527"
"港楽店","愛知県名古屋市港区港楽1-8-4","35.105631","136.8859363"
"岩塚店","愛知県名古屋市中村区畑江通8-43-1","35.15729810000001","136.8591837"
"西大曽根店","愛知県名古屋市北区大曽根2ｰ7ｰ23　サンハウス大曽根1A","35.1894115","136.9313062"
"松河戸店","愛知県春日井市中切町1-1-5","35.2256754","136.9689857"
"梅森台店","愛知県日進市梅森台1-174","35.1320206","137.0140229"
"春日井上八田店","愛知県春日井市八田町7-3-14","35.2564373","136.9692151"
"吹上店","愛知県名古屋市千種区大久手町6-9","35.1595896","136.9361541"
"大府駅前店","愛知県大府市中央町6-155","35.0088958","136.9641125"
"相生店","愛知県名古屋市天白区境根94番地","35.1051504","136.9744079"
"葵店","愛知県名古屋市東区葵3ｰ12ｰ23","35.1728736","136.931868"
"知立堀切店","愛知県知立市鳥居1-13-9","35.0026487","137.0358645"
"四女子店","愛知県名古屋市中川区好本町1-25-1","35.1430168","136.869625"
"千音寺店","愛知県名古屋市中川区富田町大字千音寺字間渡里2850","35.1582721","136.8125856"
"大畑店","愛知県名古屋市中川区大畑町1-133　ベルハイム大畑","35.1316642","136.8658067"
"甚目寺森店","愛知県あま市森4-2-10","35.211404","136.8106815"
"ベルコート店","愛知県尾張旭市狩宿町4-35-1","35.2109775","137.0643032"
"守山城下店","愛知県名古屋市守山区小六町21-12","35.1943749","136.9701866"
"春日井東谷橋店","愛知県春日井市高蔵寺町4-1-10","35.2600464","137.0432466"
"半田宮本店","愛知県半田市宮本町5-303-12","34.8873812","136.9073421"
"平針試験場前店","愛知県名古屋市天白区平針台2ｰ201","35.1061679","137.0062989"
"大府共和店","愛知県大府市共栄町8-13-3","35.0410833","136.9541487"
"恵方店","愛知県名古屋市昭和区阿由知通5-13","35.1457914","136.9340547"
"篭山店","愛知県名古屋市緑区鴻仏目1-605","35.0816227","136.98163"
"豊田挙母店","愛知県豊田市八幡町3-3","35.0797397","137.1626624"
"知多寺本店","愛知県知多市八幡字東水代31-6","34.998","136.8756761"
"安城末広店","愛知県安城市錦町33","34.9539726","137.0831357"
"師勝店","愛知県北名古屋市久地野権現1","35.2369952","136.8966554"
"安井店","愛知県名古屋市北区安井町4-13-25","35.2108685","136.92184"
"上名古屋店","愛知県名古屋市西区上名古屋1-12-5","35.1942054","136.897896"
"如意店","愛知県名古屋市北区如意4-44-3","35.2361377","136.9207616"
"豊田保見店","愛知県豊田市保見町井ノ口72-2","35.1352346","137.1243063"
"前浜店","愛知県名古屋市南区寺部通3-5","35.0929469","136.9295564"
"東郷春木店","愛知県愛知郡東郷町大字春木字新池3917-4","35.0904179","137.0333326"
"高浜店","愛知県高浜市神明町7ｰ1ｰ18","34.9336569","137.0014725"
"大高店","愛知県名古屋市緑区鳴海町下汐田86","35.0719325","136.9393139"
"有松店","愛知県名古屋市緑区桶狭間神明346番地","35.0549933","136.9631314"
"一宮浜町店","愛知県一宮市浜町4-11-1","35.3095591","136.8122759"
"姥子山店","愛知県名古屋市緑区鎌倉台2-1701","35.0712712","136.9844273"
"津島愛宕店","愛知県津島市愛宕町4-25-1","35.1696661","136.7367256"
"半田やなべ店","愛知県半田市岩滑高山町6-22-12","34.9094854","136.9142323"
"清須店","愛知県清須市西市場6-9-23","35.2203423","136.8282102"
"春日井如意申店","愛知県春日井市如意申町6-1-12","35.2457354","136.949903"
"長久手図書館通店","愛知県長久手市西浦812","35.1768538","137.0376994"
"小牧小木店","愛知県小牧市小木西2-246-1","35.2731369","136.8897872"
"守山口店","愛知県名古屋市守山区市場14番16","35.1956047","136.9507129"
"稲沢西店","愛知県稲沢市石橋5ｰ38","35.2592447","136.7789373"
"一宮花池店","愛知県一宮市花池3ｰ11ｰ7","35.2875305","136.7955535"
"西尾今川店","愛知県西尾市今川町馬捨場16","34.85754","137.0613805"
"萱津橋店","愛知県あま市坂牧大塚86","35.1840522","136.8319604"
"豊明前後店","愛知県豊明市前後町螺貝1378-1","35.0591891","136.9895631"
"西尾道光寺店","愛知県西尾市道光寺町堰板37ｰ1","34.8729131","137.0612161"
"佐屋北一色店","愛知県愛西市北一色町北田面273","35.1497493","136.7245917"
"蟹江本町店","愛知県海部郡蟹江町大字蟹江本町字コの割34","35.1386939","136.7982635"
"鳥居通店","愛知県名古屋市中村区鳥居通3-32","35.173885","136.8630437"
"守山区役所前店","愛知県名古屋市守山区小幡中2ｰ23ｰ9　グレース北屋敷","35.2037482","136.9755384"
"名東藤森店","愛知県名古屋市名東区藤森1ｰ6-1","35.181208","137.0083694"
"東海荒尾店","愛知県東海市荒尾町祢崎106","35.029342","136.9140614"
"守山八剣店","愛知県名古屋市守山区元郷2ｰ802","35.2028968","137.0008834"
"小牧岩崎店","愛知県小牧市岩崎1995","35.3097252","136.9296685"
"岡崎大西店","愛知県岡崎市大西2丁目1-6","34.9427494","137.1849454"
"一宮小信店","愛知県一宮市小信中島字川東14-1","35.3115194","136.7483909"
"岡崎若松店","愛知県岡崎市若松町字横手16-1","34.9135487","137.1637403"
"津島神守店","愛知県津島市越津町字柳之内93","35.1765271","136.7649923"
"東浦店","愛知県知多郡東浦町大字生路字池下5","34.9515123","136.9705136"
"一宮開明店","愛知県一宮市開明字郷東20ｰ1","35.3153412","136.7714414"
"忠次店","愛知県名古屋市南区忠次2-1-1","35.102601","136.9184992"
"桃花台店","愛知県小牧市高根2ｰ189-5","35.2936089","136.9773568"
"一宮森本店","愛知県一宮市森本1ｰ22-5","35.2942081","136.8158732"
"小牧中央店","愛知県小牧市中央6-332","35.2842642","136.9361385"
"刈谷稲場店","愛知県刈谷市稲場町1ｰ121","35.004414","136.9976207"
"刈谷司店","愛知県刈谷市司町1ｰ37","34.9848694","136.988161"
"津島高台寺店","愛知県津島市高台寺字茶木原41-4","35.1586992","136.7727702"
"守山白沢店","愛知県名古屋市守山区川村町365","35.2134275","136.9688083"
"弥富東店","愛知県弥富市大字鯏浦字車東1-2","35.1148266","136.740107"
"扶桑伊勢帰店","愛知県丹羽郡扶桑町大字高雄字伊勢帰128-2","35.3655833","136.9206307"
"岡崎上和田店","愛知県岡崎市天白町字東池25-1","34.933613","137.1454687"
"砂田橋店","愛知県名古屋市東区大幸4丁目16番1号","35.1890753","136.9540877"
"瑞穂運動場店","愛知県名古屋市瑞穂区田辺通6ｰ43","35.1206338","136.9480209"
"刈谷駅南口店","愛知県刈谷市南桜町1ｰ29","34.9909744","137.0070841"
"大府インター店","愛知県大府市宮内町4-378","35.0053311","136.9236893"
"豊橋藤沢店","愛知県豊橋市小浜町11","34.7403716","137.3657972"
"豊田前田店","愛知県豊田市前田町6-39-1","35.0636332","137.1635297"
"安城今村店","愛知県安城市今本町4ｰ1-6","34.9926368","137.0793912"
"江南西店","愛知県江南市東野町米野85","35.3360886","136.85909"
"栄鉄砲町店","愛知県名古屋市中区栄2ｰ14-6","35.1663178","136.9022042"
"瀬戸山口店","愛知県瀬戸市今林町395","35.2004777","137.0927432"
"大治店","愛知県海部郡大治町大字馬島字大門西48","35.1729201","136.8194088"
"半田瑞穂店","愛知県半田市瑞穂町7ｰ11-2","34.8851574","136.9405526"
"名東山の手店","愛知県名古屋市名東区山の手3ｰ901","35.1861959","136.9947988"
"岩倉八剱店","愛知県岩倉市八剱町下り松36","35.2929178","136.8799291"
"富士見橋店","愛知県名古屋市中区千代田4-1-29","35.1554919","136.9126564"
"阿久比店","愛知県知多郡阿久比町大字白沢天神前39-1","34.9543577","136.9142062"
"豊橋下地店","愛知県豊橋市下地字操穴32","34.7879077","137.3886021"
"犬山五郎丸店","愛知県犬山市大字五郎丸字上前田23","35.3662105","136.9429836"
"錦東櫻店","愛知県名古屋市東区東桜2ｰ15ｰ20　光ビル1F","35.1707984","136.9168803"
"岡崎上六名店","愛知県岡崎市上六名2ｰ9ｰ1","34.9502451","137.1555478"
"本郷駅前店","愛知県名古屋市名東区本郷2ｰ133","35.1768838","137.0170574"
"メッツ大曽根店","愛知県名古屋市東区矢田2-1-95","35.1923354","136.9405694"
"昭和橋店","愛知県名古屋市中川区昭和橋通3-16","35.1250525","136.8671596"
"春日井篠木店","愛知県春日井市下市場町3ｰ4-12","35.2585469","136.9973376"
"大府名高山店","愛知県大府市横根町名高山26-10","35.0344179","136.9706421"
"三好東山店","愛知県みよし市三好町東山台21-3","35.087355","137.086786"
"岩倉川井町店","愛知県岩倉市川井町白山27","35.2650851","136.8663932"
"豊田本新町店","愛知県豊田市本新町8-82-2","35.0790262","137.1141951"
"蒲郡三谷店","愛知県蒲郡市三谷北通1-159","34.8192318","137.2505833"
"幸田北店","愛知県額田郡幸田町相見越丸8","34.8889184","137.1647078"
"三好インター店","愛知県みよし市福谷町落合18-3","35.1113581","137.1011175"
"豊川末広通店","愛知県豊川市末広通3-44-3","34.8302567","137.3922405"
"守山瀬古店","愛知県名古屋市守山区瀬古東3-1206","35.2118076","136.9430686"
"日進竹の山店","愛知県日進市竹の山2丁目1924番地","35.1557343","137.0344339"
"西尾寺津店","愛知県西尾市寺津2ｰ10ｰ14","34.8490286","137.0181313"
"栄錦三丁目店","愛知県名古屋市中区錦3ｰ20-13","35.1701756","136.9030401"
"平安通店","愛知県名古屋市北区八竜町1-51","35.1997729","136.9315645"
"日置橋店","愛知県名古屋市中区松原1ｰ3-28","35.1577213","136.8935386"
"東刈谷店","愛知県刈谷市松栄町1ｰ14-8","34.9796875","137.0335513"
"武豊里中店","愛知県知多郡武豊町字忠白田1-1","34.8420886","136.9223222"
"刈谷一里山店","愛知県刈谷市一里山町伐払39-1","35.0269494","137.0385084"
"豊田寿店","愛知県豊田市竜神町飛越94-14","35.0528801","137.1332747"
"岡崎大樹寺店","愛知県岡崎市大樹寺2ｰ7-1","34.985025","137.1579025"
"納屋橋店","愛知県名古屋市中村区名駅5-38-5","35.1683338","136.8904385"
"大杉店","愛知県名古屋市北区大杉町4ｰ62-2","35.1909874","136.9194186"
"白壁店","愛知県名古屋市東区白壁3-20-19","35.1837716","136.917969"
"日進米野木店","愛知県日進市米野木町南荒田118-2","35.1321182","137.056557"
"池下店","愛知県名古屋市千種区池下1-10-8","35.1680389","136.9442337"
"栄・広小路店","愛知県名古屋市中区錦3ｰ21ｰ18","35.1688619","136.9030818"
"三好西店","愛知県みよし市三好町中鯰ヶ池83-1","35.0920406","137.0629799"
"尾張瀬戸店","愛知県瀬戸市陶原町1-38-1","35.2228083","137.0920872"
"桜橋店","愛知県名古屋市中区錦1ｰ1-2　ザイソウビル1","35.1722951","136.8929663"
"イオンタウン有松店","愛知県名古屋市緑区鳴海町字有松裏200","35.0682454","136.9717892"
"イオンタウン千種店","愛知県名古屋市千種区千種2-16ｰ13","35.1618525","136.9238302"
"稲葉地店","愛知県名古屋市中村区稲葉地本通2ｰ27-1","35.1682685","136.8425263"
"貴船店","愛知県名古屋市名東区貴船2ｰ703","35.1677515","137.0145582"
"豊田若林西店","愛知県豊田市若林西町北葉山21-2","35.0389137","137.0932926"
"稲沢大塚店","愛知県稲沢市大塚北8ｰ56-3","35.2420805","136.7973898"
"155号線常滑店","愛知県常滑市錦町1ｰ45","34.8992635","136.8397632"
"中川玉川町店","愛知県名古屋市中川区玉川町1-1","35.1234336","136.8776168"
"碧南店","愛知県碧南市霞浦町2-37","34.8829044","137.0028189"
"守山志段味店","愛知県名古屋市守山区平池東315","35.2369086","137.0061127"
"エスカ店","愛知県名古屋市中村区椿町6ｰ9　エスカ地下街内","35.1702156","136.8803616"
"岡崎矢作店","愛知県岡崎市矢作町字桜海道14-1","34.9579302","137.1435014"
"岡崎橋目店","愛知県岡崎市小針町字神田57-1","34.9859901","137.1269807"
"栄四丁目店","愛知県名古屋市中区栄4-16-10","35.1665763","136.910634"
"小坂井店","愛知県豊川市伊奈町慶応23-194","34.8024515","137.3456073"
"ヨシヅヤ津島北テラス店","愛知県津島市片岡町60","35.1837669","136.7267927"
"一宮神山店","愛知県一宮市神山1-14-26","35.3041562","136.7906341"
"ユニモール店","愛知県名古屋市中村区名駅4ｰ5ｰ26","35.1713388","136.8862417"
"栄三丁目店","愛知県名古屋市中区栄3-8-8","35.1675205","136.9055039"
"イオンモール大高店","愛知県名古屋市緑区大高町字奥平子1-1　イオン大高ショッピングセンター","35.0536959","136.9462716"
"リソラ大府店","愛知県大府市柊山町1丁目98番地","35.0169863","136.9577601"
"イオンタウン弥富店","愛知県弥富市五明町蒲原1371-4","35.1143953","136.7170425"
"栄・大津通店","愛知県名古屋市中区栄3-27-7","35.1650598","136.9069538"
"テレピア店","愛知県名古屋市東区東桜一丁目1413番","35.1726088","136.9101311"
"蒲郡競艇場前店","愛知県蒲郡市拾石町塩浜8番地","34.8225009","137.202492"
"江南村久野店","愛知県江南市村久野町瀬頭163-5","35.3558168","136.8738829"
"桜通大津店","愛知県名古屋市中区丸の内三丁目19番30号","35.1741974","136.9066259"
"豊橋平川本町店","愛知県豊橋市平川本町一丁目1-11","34.7618263","137.4224408"
"名古屋空港東店","愛知県春日井市味美上ノ町2049-4","35.2431835","136.935546"
"栄五丁目店","愛知県名古屋市中区栄五丁目25-35","35.1621798","136.9130117"
"セントラルパーク店","愛知県名古屋市中区錦3-15-13先","35.1724014","136.9085668"
"東海名和店","愛知県東海市名和町後酉19番地","35.0622556","136.9191381"
"イオンモール新瑞橋店","愛知県名古屋市南区菊住1丁目7-10","35.1147088","136.93525"
"メイフィス名駅店","愛知県名古屋市中村区名駅4丁目26-25　メイフィス名駅ビル1F","35.1684549","136.886999"
"西高蔵店","愛知県名古屋市熱田区五本松町11番2号","35.1342137","136.9024885"
"名鉄イン名古屋桜通店","愛知県名古屋市中村区名駅3丁目17番21号","35.1730913","136.8860361"
"豊橋三本木店","愛知県豊橋市三本木町字新三本木23番地","34.7253687","137.3945535"
"イオン名古屋東店","愛知県名古屋市名東区猪子石原2丁目1701番地","35.1953253","136.9937986"
"中小田井店","愛知県名古屋市西区中小田井三丁目234番地","35.2136992","136.8693538"
"星ヶ丘店","愛知県名古屋市千種区星ヶ丘井上町43-2","35.1620935","136.9834536"
"矢場町店","愛知県名古屋市中区栄三丁目31番8号","35.16379610000001","136.908276"
"稲沢駅東店","愛知県稲沢市下津北山1丁目7-7","35.2571766","136.8226723"
"栄生駅前店","愛知県名古屋市西区栄生一丁目35-20　川津ビル1F","35.1835513","136.8742333"
"桜山店","愛知県名古屋市瑞穂区瑞穂通1丁目1-6","35.1382508","136.9332189"
"金山二丁目店","愛知県名古屋市中区金山二丁目8番4号","35.1453928","136.903277"
"太田川店","愛知県東海市大田町東畑158","35.016621","136.8989641"
"覚王山店","愛知県名古屋市千種区山門町2-56","35.1675645","136.9530663"
"本店","愛知県名古屋市瑞穂区上山町3-13","35.1378736","136.9504091"
"高岳店","愛知県名古屋市東区泉2ｰ21-3","35.1760002","136.9147306"
"大磯店","愛知県名古屋市南区大磯通4-15　美谷レジデンス106","35.1057482","136.9263771"
"松風店","愛知県名古屋市昭和区松風町1-7","35.1469632","136.9269053"
"上前津店","愛知県名古屋市中区大須3-31-42","35.1583717","136.9051542"
"東郊通店","愛知県名古屋市昭和区御器所1-3-1","35.14990960000001","136.9187088"
"五女子店","愛知県名古屋市中川区露橋2-25-15","35.1458696","136.8842954"
"豊明店","愛知県豊明市新田町門先8-11","35.0512105","137.0196795"
"刈谷店","愛知県刈谷市井ヶ谷町天白19-4","35.0642102","137.0502039"
"本町店","愛知県名古屋市中区大須2-5-13","35.1617906","136.9018822"
"新栄店","愛知県名古屋市中区新栄1-17-1","35.1661461","136.9189777"
"正木店","愛知県名古屋市中区正木3-1-24","35.1456618","136.8948138"
"平和店","愛知県名古屋市中区平和1-10-10　コスモパレス","35.14842","136.906607"
"道徳店","愛知県名古屋市南区道徳新町5-1　パークテラス道徳1F","35.1047827","136.9058315"
"杁中店","愛知県名古屋市昭和区隼人町6-8　ピアハヤト2F","35.1428189","136.9554281"
"庄内通店","愛知県名古屋市西区庄内通4-1　庄内ハイツ","35.205976","136.891388"
"伏見店","愛知県名古屋市中区丸の内2-1-30　丸の内オフィスフォーラム","35.1764503","136.8969827"
"当知店","愛知県名古屋市港区甚兵衛通1-5-1","35.1068241","136.8463521"
"東海通店","愛知県名古屋市港区九番町5-2　エミールIST1F","35.114341","136.884894"
"浦里店","愛知県名古屋市緑区浦里1-160　グランドハイツ浦里","35.0886781","136.9460207"
"児玉店","愛知県名古屋市西区児玉町3-5-10","35.1918133","136.8798033"
"弥生店","愛知県名古屋市南区明円町19-6　サンヒルズ秀B棟","35.099968","136.9427399"
"法華店","愛知県名古屋市中川区法華西町1-13","35.1318677","136.8421455"
"野並店","愛知県名古屋市天白区井の森232-1　アイコービル1F","35.1042458","136.9512742"
"中割店","愛知県名古屋市南区中割町3-120-1","35.0876055","136.9195908"
"山手店","愛知県名古屋市昭和区山手通4-15　ペポ山手ビル2F","35.1411875","136.9667344"
"港店","愛知県名古屋市港区名港2-9-27　ポートプラザビル1F","35.0946424","136.8826424"
"城北店","愛知県名古屋市北区八代町2-10-2","35.2018717","136.9109749"
"柴田店","愛知県名古屋市南区柴田町6-19","35.0709686","136.9096478"
"豊田梅坪店","愛知県豊田市梅坪町1-18-1","35.1052393","137.1579698"
"安城店","愛知県安城市朝日町20-20","34.9561087","137.0905016"
"和合店","愛知県愛知郡東郷町和合牛廻間41-4","35.10730210000001","137.0423869"
"尾張旭店","愛知県尾張旭市西大道町原田2525-9","35.2167568","137.0406859"
"伝馬町店","愛知県名古屋市熱田区神宮4-7-27　宝18ビル","35.1206909","136.9116683"
"白雲店","愛知県名古屋市南区白雲町84","35.0955415","136.9403527"
"菅田店","愛知県名古屋市天白区菅田1-2508　インテリジェント野並","35.1126765","136.9635471"
"八田店","愛知県名古屋市中村区並木2-262　フェニックス並木","35.149933","136.8525163"
"春日店","愛知県清須市春日中沼15-1","35.2293446","136.855377"
"都通店","愛知県名古屋市千種区豊年町14-13　クリーンビル1","35.175429","136.938556"
"滝ノ水店","愛知県名古屋市緑区滝の水1-1001","35.0919297","136.9787939"
"日比野店","愛知県名古屋市熱田区大宝3-9-8","35.1302777","136.8944978"
"南陽町店","愛知県名古屋市港区八百島2-1803","35.1173137","136.8182297"
"緑黒石店","愛知県名古屋市緑区黒沢台4-707","35.0986824","136.9936506"
"桜台店","愛知県名古屋市南区鳥栖2-1302","35.1097206","136.9381666"
"植田店","愛知県名古屋市天白区植田本町2-1010","35.1326616","136.9917527"
"港楽店","愛知県名古屋市港区港楽1-8-4","35.105631","136.8859363"
"岩塚店","愛知県名古屋市中村区畑江通8-43-1","35.15729810000001","136.8591837"
"西大曽根店","愛知県名古屋市北区大曽根2ｰ7ｰ23　サンハウス大曽根1A","35.1894115","136.9313062"
"松河戸店","愛知県春日井市中切町1-1-5","35.2256754","136.9689857"
"梅森台店","愛知県日進市梅森台1-174","35.1320206","137.0140229"
"春日井上八田店","愛知県春日井市八田町7-3-14","35.2564373","136.9692151"
"吹上店","愛知県名古屋市千種区大久手町6-9","35.1595896","136.9361541"
"大府駅前店","愛知県大府市中央町6-155","35.0088958","136.9641125"
"相生店","愛知県名古屋市天白区境根94番地","35.1051504","136.9744079"
"葵店","愛知県名古屋市東区葵3ｰ12ｰ23","35.1728736","136.931868"
"知立堀切店","愛知県知立市鳥居1-13-9","35.0026487","137.0358645"
"四女子店","愛知県名古屋市中川区好本町1-25-1","35.1430168","136.869625"
"千音寺店","愛知県名古屋市中川区富田町大字千音寺字間渡里2850","35.1582721","136.8125856"
"大畑店","愛知県名古屋市中川区大畑町1-133　ベルハイム大畑","35.1316642","136.8658067"
"甚目寺森店","愛知県あま市森4-2-10","35.211404","136.8106815"
"ベルコート店","愛知県尾張旭市狩宿町4-35-1","35.2109775","137.0643032"
